"dispatch_ts","mode_type","location_type","street","xstreet1","xstreet2","x_cord","y_cord","lat","long"
"2019-02-28 16:22:25","ped","Street","OLD COLONY TER","SAVIN HILL AVE","WILLIAM T MORRISSEY BLVD","778755.720000000000","2939231.020000000000","42.3123497498068","-71.0466432996104"
"2019-02-28 16:17:07","mv","Intersection",,"DAVID G MUGAR WAY","PINCKNEY ST","771761.610000000000","2956054.410000000000","42.3587691245571","-71.0723103935199"
"2019-02-28 15:51:51","ped","Street","TERMINAL RD","TERMINAL A","TERMINAL B","785398.370000000000","2958235.760000000000","42.3653507244967","-71.0211135898958"
"2019-02-28 15:34:55","mv","Street","RADCLIFFE RD","GREENFIELD RD","RUSKINDALE RD","763248.440000000000","2923046.310000000000","42.2682275955996","-71.1042316375856"
"2019-02-28 14:44:53","ped","Intersection",,"BOYLSTON ST","MASSACHUSETTS AVE","767612.720000000000","2951853.400000000000","42.3472975055308","-71.0877357491058"
"2019-02-28 12:54:00","mv","Street","WEST ROXBURY PKWY","NEW PARK AVE","COLBERG AVE","752111.010000000000","2928117.460000000000","42.2822348094894","-71.1456295220536"
"2019-02-28 12:23:54","mv","Street","WASHINGTON ST","COREY RD","EGREMONT RD","753064.510000000000","2950070.060000000000","42.3428542737332","-71.1413048213487"
"2019-02-28 10:57:33","ped","Intersection",,"E CONCORD ST","HARRISON AVE","771559.290000000000","2947936.650000000000","42.336496555362","-71.0732092271695"
"2019-02-28 09:10:45","bike","Street","MAIN ST","WOOD ST","HATHON SQ","773676.650000000000","2962462.430000000000","42.376179944295","-71.0653027248353"
"2019-02-28 00:51:08","mv","Other",,,,"745397.730000000000","2955465.390000000000","42.3574742126117","-71.1698614019286"
"2019-02-28 00:16:20","mv","Street","ADAMS ST","LEEDSVILLE ST","ROBINSON ST","774953.760000000000","2935883.920000000000","42.3034192015764","-71.0606878722669"
"2019-02-27 23:14:48","mv","Street","COWING ST","WASHINGTON ST","VERSHIRE ST","752012.760000000000","2924407.240000000000","42.2722742421995","-71.1457448455959"
"2019-02-27 20:35:22","mv","Intersection",,"W SEVENTH ST","C ST","776376.870000000000","2948234.900000000000","42.337247434932","-71.0553855080382"
"2019-02-27 18:06:36","ped","Street","MORTON ST",,,"767739.540000000000","2927915.860000000000","42.2818350572671","-71.0874406854712"
"2019-02-27 17:49:16","mv","Intersection",,"COLUMBIA RD","WASHINGTON ST","769624.220000000000","2936613.260000000000","42.3054510250734","-71.0805720932044"
"2019-02-27 12:58:57","mv","Street","BLUE HILL AVE","WALES ST","ESMOND ST","768098.860000000000","2934198.810000000000","42.2989064451552","-71.0865860545758"
"2019-02-27 12:57:12","ped","Street","STRATTON ST","WESTVIEW ST","LUCERNE ST","767819.880000000000","2930910.350000000000","42.2897149123768","-71.0874756875755"
"2019-02-27 09:10:24","mv","Street","WILLIAM F MCCLELLAN HWY",,,"780980.720000000000","2961485.670000000000","42.3735429750954","-71.0380959598359"
"2019-02-27 08:53:36","mv","Intersection",,"SHAWMUT AVE","MASSACHUSETTS AVE","770252.740000000000","2948249.950000000000","42.3373740989308","-71.0780358169189"
"2019-02-26 12:40:32","mv","Street","GOVE ST","PARIS ST","CHELSEA ST","781094.110000000000","2960923.450000000000","42.3717940967054","-71.0379262630824"
"2019-02-26 00:43:05","mv","Other",,,,"778878.690000000000","2933450.420000000000","42.2966420675368","-71.0464231258188"
"2019-02-25 21:12:38","ped","Intersection",,"SEAPORT BLVD","SLEEPER ST","778230.730000000000","2954032.970000000000","42.3531307575138","-71.0484153352986"
"2019-02-25 20:18:07","mv","Intersection",,"BOWDOIN ST","HENDRY ST","774005.800000000000","2937832.630000000000","42.3087367717951","-71.0643515979202"
"2019-02-25 19:07:24","ped","Intersection",,"DECATUR ST","VINE ST","776219.490000000000","2962543.180000000000","42.3765118660212","-71.0556919250092"
"2019-02-25 18:09:42","mv","Intersection",,"ARCHDALE RD","WASHINGTON ST","758604.940000000000","2931947.040000000000","42.2927880949598","-71.1213839813209"
"2019-02-25 10:11:35","ped","Intersection",,"PARK DR","BEACON ST","763037.350000000000","2951654.870000000000","42.3468121699906","-71.1046642377259"
"2019-02-25 10:01:54","bike","Intersection",,"WASHINGTON ST","NEWCOMB ST","769921.240000000000","2947247.910000000000","42.3346289599818","-71.0792801792179"
"2019-02-25 07:27:00","mv","Intersection",,"GALLIVAN BLVD","MORTON ST","769781.120000000000","2926933.060000000000","42.2788858569093","-71.0801682146682"
"2019-02-24 22:45:41","mv","Other",,,,"775519.650000000000","2958095.810000000000","42.3643182107574","-71.0583671635933"
"2019-02-24 18:14:57","ped","Street","NORFOLK ST","NORFOLK CT","BABSON ST","766381.510000000000","2926147.710000000000","42.2766437081607","-71.0924421629544"
"2019-02-24 16:36:48","mv","Other",,,,"777341.200000000000","2955834.180000000000","42.358086186739","-71.0516711287163"
"2019-02-24 12:47:30","ped","Street","WASHINGTON ST","CAMBRIDGE ST","WINSHIP ST","750630.830000000000","2952546.030000000000","42.349063854818","-71.1505204774071"
"2019-02-24 11:53:47","mv","Other",,,,"766153.590000000000","2953275.930000000000","42.3512201946157","-71.0931082171735"
"2019-02-24 11:46:52","ped","Street","WASHINGTON ST","SCHOOL ST","BOYLSTON ST","764297.410000000000","2939765.860000000000","42.3140669251802","-71.1000139823385"
"2019-02-24 09:45:46","mv","Street","WARREN ST","HARRISON AVE","SAINT JAMES ST","768714.650000000000","2944391.150000000000","42.3267737617259","-71.0833464440971"
"2019-02-24 04:38:47","mv","Street","PARK ST","GREENWOOD PARK","SALISBURY PARK","775326.220000000000","2934273.140000000000","42.2989455550521","-71.0595356330183"
"2019-02-24 02:36:44","mv","Street","TRANSPORTATION WAY","RAMP - HARBORSIDE DRIVE TO RT","PORTER ST","783096.840000000000","2959473.830000000000","42.3679625125198","-71.0288777531417"
"2019-02-23 21:51:53","mv","Intersection",,"LAMARTINE ST","ATHERTON ST","763490.590000000000","2941685.630000000000","42.3194503995947","-71.1031592126033"
"2019-02-23 19:43:32","ped","Intersection",,"A ST","W BROADWAY","776337.870000000000","2949908.400000000000","42.3418401247323","-71.0554974965323"
"2019-02-23 18:36:35","mv","Other",,,,"778209.070000000000","2935038.320000000000","42.3010090909076","-71.0488671337898"
"2019-02-23 16:55:21","mv","Street","ALBANY ST","W FOURTH ST","PAUL SULLIVAN WAY","774266.480000000000","2950176.870000000000","42.3424905784431","-71.0627441116411"
"2019-02-23 13:52:47","mv","Street","COLUMBUS AVE","CLEAVES ST","WALNUT AVE","765257.010000000000","2939408.620000000000","42.3138093752255","-71.0958473511998"
"2019-02-23 10:06:24","mv","Street","TACOMA ST","CHAPEL RD","MELBA WAY","760879.790000000000","2923111.970000000000","42.2683457125158","-71.1130097680086"
"2019-02-23 00:27:34","mv","Street","CENTRE ST","HILLCROFT RD","LOUDERS LN","758098.700000000000","2937505.170000000000","42.3079666618444","-71.1229578256634"
"2019-02-22 22:21:30","mv","Intersection",,"BEACON ST","DARTMOUTH ST","769938.920000000000","2954185.660000000000","42.3536661134324","-71.0790881712292"
"2019-02-22 21:49:10","ped","Street","SEAPORT BLVD","SLEEPER ST","BOSTON WHARF RD","778830.860000000000","2953528.720000000000","42.3519389714145","-71.0460381883481"
"2019-02-22 20:57:22","ped","Street","GREENWOOD ST","HARVARD ST","BRENTON ST","769967.940000000000","2933719.620000000000","42.2974878234139","-71.0795864367816"
"2019-02-22 19:27:16","mv","Street","GALLIVAN BLVD","MYRTLEBANK AVE","ROCKNE AVE","776913.880000000000","2928346.860000000000","42.2828413926776","-71.0538453892723"
"2019-02-22 17:22:21","mv","Intersection",,"TALBOT AVE","COLONIAL AVE","771269.170000000000","2931352.360000000000","42.2909924651436","-71.0745881684672"
"2019-02-22 16:11:32","bike","Intersection",,"HUMBOLDT AVE","RUTHVEN ST","767085.640000000000","2939220.910000000000","42.3126404234879","-71.0899101784612"
"2019-02-22 13:37:29","mv","Intersection",,"MONTELLO ST","ARCADIA ST","774931.110000000000","2935356.370000000000","42.3019287722915","-71.0609779286529"
"2019-02-22 07:40:16","ped","Intersection",,"NORFOLK ST","WOODROW AVE","770385.170000000000","2930262.610000000000","42.2880141765182","-71.077875257428"
"2019-02-22 07:07:24","mv","Street","MAIN ST","MEDFORD ST","MISHAWUM ST","771909.320000000000","2965188.030000000000","42.3835214466021","-71.0718586491214"
"2019-02-21 22:33:57","mv","Street","MORTON ST","HARVARD ST","CANTERBURY ST","765535.680000000000","2932000.960000000000","42.2927606591445","-71.0961095987106"
"2019-02-21 20:53:26","mv","Street","BLUE HILL AVE","RHOADES ST","MORTON ST","766638.300000000000","2929038.820000000000","42.2846511120078","-71.0914335214613"
"2019-02-21 18:22:07","mv","Street","DORCHESTER AVE","BAY ST","ROACH ST","775893.790000000000","2938756.810000000000","42.3112762009929","-71.0575981686944"
"2019-02-21 15:43:11","ped","Intersection",,"PREBLE ST","ROGERS ST","776446.800000000000","2945323.390000000000","42.32925715666","-71.0551830243903"
"2019-02-21 15:21:28","bike","Intersection",,"CHARLES ST","BEACON ST","772545.170000000000","2955133.410000000000","42.3562310643404","-71.0694285511364"
"2019-02-21 14:56:12","ped","Street","COURT ST","BOSTON PL","COURT SQ","775534.580000000000","2956265.970000000000","42.3589498175335","-71.0584586361175"
"2019-02-21 12:58:10","mv","Street","SOLDIERS FIELD RD","N BEACON ST","SOLDIERS FIELD PL","748792.670000000000","2955902.240000000000","42.358959857173","-71.1573816835524"
"2019-02-21 11:53:32","mv","Other",,,,"777899.150000000000","2925527.020000000000","42.2749140299569","-71.0501981449939"
"2019-02-21 07:51:52","ped","Intersection",,"SAINT ALPHONSUS ST","HUNTINGTON AVE","764504.270000000000","2947779.470000000000","42.3361591537832","-71.0993052353172"
"2019-02-21 07:20:40","mv","Intersection",,"MALLARD AVE","NEW ENGLAND AVE","770375.790000000000","2931296.360000000000","42.2908509771542","-71.0778910165925"
"2019-02-21 05:46:45","mv","Other",,,,"770870.690000000000","2963031.380000000000","42.3779262421643","-71.0754781761387"
"2019-02-21 00:59:41","mv","Intersection",,"ARBORWAY","SOUTH ST","760454.520000000000","2935218.730000000000","42.3017430841738","-71.1144932983711"
"2019-02-20 22:54:51","mv","Intersection",,"ARCHDALE RD","SOUTH ST","758193.890000000000","2932252.360000000000","42.293630909931","-71.1228982299207"
"2019-02-20 17:51:47","mv","Intersection",,"HAZLETON ST","FOTTLER RD","765875.840000000000","2927043.600000000000","42.279241026744","-71.0945969684811"
"2019-02-20 11:48:40","mv","Street","RAMP ",,,"774835.340000000000","2951912.590000000000","42.3473612170573","-71.0610215186187"
"2019-02-20 09:46:05","mv","Other",,,,"784577.170000000000","2958080.880000000000","42.364143673697","-71.0248532824538"
"2019-02-20 08:31:16","ped","Street","SUMMER ST","D ST","PUMPHOUSE RD","780089.370000000000","2951275.200000000000","42.345702652926","-71.0413982643729"
"2019-02-20 08:18:21","mv","Intersection",,"MERIDIAN ST","LEXINGTON ST","780689.000000000000","2962793.930000000000","42.3771348498145","-71.0391458470023"
"2019-02-20 06:49:40","mv","Intersection",,"COLUMBIA RD","K ST","781296.620000000000","2945522.890000000000","42.3297337898489","-71.0372438839708"
"2019-02-20 06:32:27","mv","Street","COLUMBIA RD",,,"772416.150000000000","2938858.330000000000","42.3114464881277","-71.0700728440656"
"2019-02-19 12:07:29","mv","Intersection",,"TERRACE PL","ALLEGHANY ST","765012.780000000000","2945413.640000000000","42.3296606527173","-71.0974657949132"
"2019-02-19 10:34:21","mv","Intersection",,"WILLIAMS AVE","TRUMAN PKWY","759091.150000000000","2916944.880000000000","42.2516150780589","-71.1198340869283"
"2019-02-19 08:54:11","mv","Intersection",,"CUMMINS HWY","HYDE PARK AVE","759305.150000000000","2927267.310000000000","42.2799380344211","-71.1188732960628"
"2019-02-19 07:57:57","mv","Street","SOLDIERS FIELD RD","TELFORD ST","EVERETT ST","754295.510000000000","2957775.920000000000","42.364162993815","-71.1371687974255"
"2019-02-18 16:57:07","mv","Intersection",,"DORCHESTER AVE","PARKMAN ST","774838.920000000000","2933240.380000000000","42.2961236848462","-71.0613589346637"
"2019-02-18 12:04:41","mv","Street","TREMONT ST","PARK ST","WINTER ST","774432.230000000000","2955205.280000000000","42.356283530065","-71.0622433950539"
"2019-02-18 01:23:23","mv","Street","GORDON AVE","AUSTIN ST","CHILD ST","757018.020000000000","2919242.850000000000","42.2577779773687","-71.1275946085801"
"2019-02-18 01:10:37","mv","Other",,,,"776432.040000000000","2943325.150000000000","42.3237741246441","-71.0552761379171"
"2019-02-18 01:06:33","mv","Street","BAY STATE RD",,,"762558.950000000000","2953101.630000000000","42.3511033887492","-71.1063722079472"
"2019-02-18 01:05:12","mv","Intersection",,"WASHINGTON ST","WESTMINSTER AVE","765139.530000000000","2940816.630000000000","42.3170446085792","-71.0970773629008"
"2019-02-17 20:03:07","mv","Street","HYDE PARK AVE","GRANT PL","RIVER ST","757897.990000000000","2918712.740000000000","42.2564458344893","-71.1239637910596"
"2019-02-17 17:20:30","mv","Other",,,,"770509.180000000000","2965151.670000000000","42.3837492618931","-71.0767771735131"
"2019-02-17 14:54:57","mv","Other",,,,"774473.650000000000","2959327.290000000000","42.3677122049131","-71.0622141426475"
"2019-02-17 01:57:19","mv","Street","MASSPORT HAUL RD","PUMPHOUSE RD","RAMP","780612.890000000000","2951481.600000000000","42.3459498366393","-71.0398097833195"
"2019-02-17 01:02:28","mv","Intersection",,"CHELSEA ST","VINE ST","776348.600000000000","2962445.600000000000","42.3762422594512","-71.0552159887078"
"2019-02-17 00:31:15","mv","Street","POND ST","NEILLIAN CRES","MOSS HILL RD","756418.470000000000","2938226.660000000000","42.3099922605088","-71.1291538081299"
"2019-02-16 23:06:47","ped","Intersection",,"BEDFORD ST","CHAUNCY ST","775025.800000000000","2954189.910000000000","42.3536073537361","-71.0602689951662"
"2019-02-16 18:51:17","mv","Street","TERRACE ST","CEDAR ST","NEW HEATH ST","764831.640000000000","2944922.810000000000","42.328332254766","-71.0982583150691"
"2019-02-16 18:23:30","mv","Street","FLORENCE ST","MURRAY HILL RD","CUMMINS HWY","757577.700000000000","2929259.610000000000","42.2855513718326","-71.125379447718"
"2019-02-16 15:37:49","bike","Street","CENTRE ST","LAMARTINE ST","WISE ST","764001.300000000000","2943224.330000000000","42.3228669761274","-71.1013282933963"
"2019-02-16 12:09:14","mv","Other",,,,"778385.400000000000","2934690.860000000000","42.300053082248","-71.0482221404601"
"2019-02-16 03:46:51","mv","Street","POPLAR ST","HAUTEVALE ST","DEFOREST ST","755762.090000000000","2924222.680000000000","42.271608021906","-71.1318309844671"
"2019-02-16 01:05:27","mv","Street","RIVER ST","WALTER ST","WINTHROP ST","758927.710000000000","2918981.600000000000","42.257081096474","-71.1201108871345"
"2019-02-15 22:43:21","ped","Street","ABBOT ST","HARVARD ST","BLUE HILL AVE","768148.400000000000","2933679.680000000000","42.2973069356931","-71.086216710672"
"2019-02-15 22:20:37","mv","Street","HANCOCK ST","DERNE ST","MOUNT VERNON ST","773907.480000000000","2956204.020000000000","42.3591498795199","-71.0643746311867"
"2019-02-15 19:18:12","ped","Street","AUSTIN ST","LAWRENCE ST","NEW RUTHERFORD AVE","773139.550000000000","2961905.920000000000","42.3745341835215","-71.0669560899832"
"2019-02-15 18:41:18","mv","Intersection",,"LYFORD ST","WOODROW AVE","768938.410000000000","2930015.860000000000","42.2873566019857","-71.0832265125464"
"2019-02-15 18:29:34","ped","Street","RIVER ST","GILLESPIES LN","RIVERBANK PL","766362.830000000000","2922881.280000000000","42.2679790782165","-71.0930790286616"
"2019-02-15 15:08:14","mv","Street","DORCHESTER AVE","ELTON ST","DORIS ST","776024.550000000000","2939595.880000000000","42.3135744874967","-71.0570755754892"
"2019-02-15 13:31:46","mv","Street","STANWOOD ST","LAREDO ST","NORMANDY ST","769803.470000000000","2938000.810000000000","42.3091237663841","-71.0800273959195"
"2019-02-15 13:19:12","bike","Intersection",,"PARK DR","BROOKLINE AVE","763598.970000000000","2950391.200000000000","42.3433374563332","-71.1026085029136"
"2019-02-15 12:12:27","mv","Street","DELNORE PL","FREMONT ST","DEAD END","766678.580000000000","2923741.720000000000","42.2700438134283","-71.0914392096596"
"2019-02-15 06:29:34","mv","Intersection",,"BLUE HILL AVE","BABSON ST","766252.000000000000","2923754.780000000000","42.2702113545936","-71.0932649349327"
"2019-02-14 23:45:48","mv","Street","CENTRE ST","CONGREVE ST","BRADFIELD AVE","753256.810000000000","2931066.790000000000","42.2902908428722","-71.1409398886064"
"2019-02-14 17:09:01","bike","Intersection",,"BEECHCROFT ST","WASHINGTON ST","747733.070000000000","2952359.080000000000","42.3489252579198","-71.1612668017878"
"2019-02-14 16:59:15","mv","Intersection",,"WASHINGTON ST","SOUTH ST","760425.970000000000","2934952.210000000000","42.3010120913106","-71.1146032853097"
"2019-02-14 16:51:42","ped","Intersection",,"RIVER ST","BLUE HILL AVE","766090.400000000000","2922831.170000000000","42.2676790126307","-71.0938782413273"
"2019-02-14 14:32:50","mv","Intersection",,"WEYBOSSET ST","MARIPOSA ST","762157.270000000000","2923589.600000000000","42.2698106721365","-71.1083964226734"
"2019-02-14 12:13:04","ped","Street","CEDAR ST","CEDAR PARK","ROMAR TER","765890.450000000000","2944607.130000000000","42.3272671600862","-71.09432610361"
"2019-02-14 09:13:08","mv","Intersection",,"AMERICAN LEGION HWY","CANTERBURY ST","765846.400000000000","2932066.710000000000","42.2930251541462","-71.0946175385884"
"2019-02-14 08:43:33","mv","Intersection",,"ELMORE ST","WASHINGTON ST","766379.530000000000","2942380.380000000000","42.3213194465637","-71.0924649586765"
"2019-02-14 08:14:40","mv","Intersection",,"ELMORE ST","WASHINGTON ST","766379.530000000000","2942380.380000000000","42.3213194465637","-71.0924649586765"
"2019-02-14 01:19:32","mv","Street","WASHINGTON ST","MESHAKA ST","DEAD END","747751.840000000000","2919167.790000000000","42.2577308177926","-71.1615204985164"
"2019-02-13 19:06:50","bike","Street","SECOND AVE","FIRST AVE","SECOND AVE","776032.740000000000","2961968.720000000000","42.3751340019727","-71.0549718048512"
"2019-02-13 18:46:15","mv","Intersection",,"METROPOLITAN AVE","WESTMINSTER ST","759602.690000000000","2921499.120000000000","42.2641060247644","-71.1178693062099"
"2019-02-13 18:14:15","bike","Street","SUMMER ST","LINCOLN ST","HIGH ST","775797.540000000000","2954023.350000000000","42.3533461106164","-71.0573389638921"
"2019-02-13 14:52:30","mv","Intersection",,"CENTRE ST","SPRING PARK AVE","760895.580000000000","2941113.200000000000","42.31791235257","-71.112763993641"
"2019-02-13 08:26:12","mv","Intersection",,"BELLEVUE HILL RD","STRATFORD ST","752898.320000000000","2926309.610000000000","42.277386148929","-71.1425629408718"
"2019-02-13 06:13:01","mv","Intersection",,"TRUMAN PKWY","WILLIAMS AVE","759091.150000000000","2916944.880000000000","42.2516150780589","-71.1198340869283"
"2019-02-13 04:04:05","mv","Street","EMERY RD","CAMBRIDGE ST","RUGG RD","754522.960000000000","2954520.580000000000","42.354747719317","-71.1360128261834"
"2019-02-13 03:25:14","mv","Intersection",,"SOLDIERS FIELD RD","N HARVARD ST","757851.640000000000","2959474.570000000000","42.3683340019458","-71.1237193399884"
"2019-02-12 21:47:46","mv","Other",,,,"758789.910000000000","2955594.000000000000","42.3576742121623","-71.1203112812667"
"2019-02-12 19:47:36","mv","Street","MORTON ST",,,"767739.540000000000","2927915.860000000000","42.2818350572671","-71.0874406854712"
"2019-02-12 18:33:58","mv","Street","ENNEKING PKWY","DEDHAM PKWY","WASHINGTON ST","752372.500000000000","2922236.570000000000","42.2662098945315","-71.1445768950229"
"2019-02-12 18:06:03","mv","Street","HUNTINGTON AVE","LONGWOOD AVE","SAINT ALPHONSUS ST","764413.100000000000","2947675.910000000000","42.3359884115054","-71.0997318940985"
"2019-02-12 16:23:19","mv","Intersection",,"COMMONWEALTH AVE","BOSTON UNIVERSITY BRG","761329.930000000000","2953047.030000000000","42.3506538434963","-71.1109567442934"
"2019-02-12 15:20:46","mv","Intersection",,"MORTON ST","CANTERBURY ST","765371.830000000000","2932140.590000000000","42.2932340612458","-71.0963702575946"
"2019-02-12 15:08:45","mv","Street","WALK HILL ST","FOTTLER RD","BLUE HILL AVE","765683.420000000000","2926687.380000000000","42.2783723771008","-71.0951277880522"
"2019-02-12 14:16:01","mv","Street","GALLIVAN BLVD","RITA RD","WOODFIELD ST","777475.220000000000","2928637.700000000000","42.2832805565719","-71.0516672223705"
"2019-02-12 12:32:45","mv","Intersection",,"MORTON ST","NORFOLK ST","767924.530000000000","2927906.180000000000","42.2815810353232","-71.087011227094"
"2019-02-12 09:44:30","mv","Street","RIVER ST",,,"772628.330000000000","2924418.220000000000","42.2722842739781","-71.0699431103465"
"2019-02-12 06:52:21","mv","Intersection",,"CURTIS ST","DEAD END","785196.590000000000","2965885.180000000000","42.3855491925566","-71.0223996483802"
"2019-02-12 05:39:03","mv","Intersection",,"CEDAR ST","COLUMBUS AVE","765144.070000000000","2944867.370000000000","42.3281599638715","-71.0969898111653"
"2019-02-12 05:29:23","mv","Intersection",,"A ST","W FOURTH ST","776117.180000000000","2949648.900000000000","42.3411312025301","-71.0563187871751"
"2019-02-12 03:00:55","mv","Street","WASHINGTON ST","TORREY ST","WALTON ST","772128.850000000000","2930098.160000000000","42.2875423341952","-71.0712182223698"
"2019-02-12 00:54:24","mv","Street","BOWDOIN AVE","MOUNT BOWDOIN GREEN","MALLON RD","770986.700000000000","2935590.520000000000","42.3022228156034","-71.0761496238591"
"2019-02-11 23:37:34","mv","Street","LEVERETT CIR","DEAD END","DEAD END","772689.010000000000","2958995.320000000000","42.3667102107911","-71.0679025616508"
"2019-02-11 22:36:19","mv","Other",,,,"774473.650000000000","2959327.290000000000","42.3677122049131","-71.0622141426475"
"2019-02-11 22:30:42","mv","Intersection",,"MESSINGER ST","WOODHAVEN ST","765296.560000000000","2924355.650000000000","42.2718726343646","-71.0967844758048"
"2019-02-11 20:42:58","ped","Street","BOWDOIN ST","NORTON ST","BOWDOIN PARK","773132.000000000000","2936647.200000000000","42.305622043678","-71.0677850837874"
"2019-02-11 18:25:38","mv","Other",,,,"779632.300000000000","2928949.080000000000","42.2842791126803","-71.0437266337309"
"2019-02-11 17:31:12","bike","Street","BENNINGTON ST","ANTRIM ST","ASHLEY ST","789941.820000000000","2966427.330000000000","42.3872281452422","-71.0049836466348"
"2019-02-11 15:06:30","mv","Street","WASHINGTON ST","E SPRINGFIELD ST","MASSACHUSETTS AVE","770663.060000000000","2947924.750000000000","42.3366549743893","-71.0767668234894"
"2019-02-11 13:46:09","mv","Other",,,,"774485.370000000000","2959412.270000000000","42.3679452260344","-71.0621691603115"
"2019-02-11 13:09:54","mv","Street","MOSS HILL RD","SURREYHILL LN","MOSSBANK FWY","757194.730000000000","2937001.930000000000","42.3064819930244","-71.1264506458088"
"2019-02-11 11:13:57","bike","Intersection",,"DALE ST","WASHINGTON ST","767166.910000000000","2943165.390000000000","42.3234631886878","-71.0895395333235"
"2019-02-11 08:20:11","mv","Other",,,,"753984.400000000000","2955423.690000000000","42.357264200907","-71.1380933139997"
"2019-02-11 01:30:42","mv","Street","I90 ",,,"771531.850000000000","2952067.560000000000","42.347822831247","-71.0732343722366"
"2019-02-10 18:39:52","mv","Intersection",,"RUGGLES ST","LEON ST","766682.530000000000","2947747.650000000000","42.3360434768566","-71.0912494631456"
"2019-02-10 18:27:28","mv","Intersection",,"DORCHESTER AVE","GALLIVAN BLVD","773631.170000000000","2927331.350000000000","42.2799259084771","-71.065934137825"
"2019-02-10 16:49:20","mv","Intersection",,"WASHINGTON ST","ARBORWAY","761022.160000000000","2935137.440000000000","42.3015129604056","-71.1123963752062"
"2019-02-10 12:25:57","mv","Intersection",,"COLUMBIA RD","OLD COLONY AVE","777314.290000000000","2942481.380000000000","42.3214461187583","-71.0520301521179"
"2019-02-10 02:32:52","mv","Intersection",,"BROOKS ST","EUTAW ST","781595.500000000000","2963811.430000000000","42.3799133826284","-71.0357704832452"
"2019-02-10 01:34:01","mv","Other",,,,"776432.040000000000","2943325.150000000000","42.3237741246441","-71.0552761379171"
"2019-02-10 00:49:07","mv","Street","BLUE HILL AVE","WOODHAVEN ST","REGIS RD","766080.530000000000","2924545.850000000000","42.2723824687784","-71.0937297738954"
"2019-02-09 23:32:33","mv","Street","HARROW ST","HUMPHREYS ST","HILLSBORO ST","773135.660000000000","2941792.910000000000","42.319654664768","-71.0673113686247"
"2019-02-09 22:06:17","mv","Street","AMERICAN LEGION HWY","CANTERBURY ST","MOUNT HOPE ST","761545.790000000000","2929419.510000000000","42.2856039043794","-71.1103203907709"
"2019-02-09 21:23:53","ped","Street","FAIRMOUNT AVE","PIERCE ST","NOTT ST","758991.480000000000","2918034.390000000000","42.2546533838435","-71.1200315561959"
"2019-02-09 05:09:56","mv","Intersection",,"WEST ST","HYDE PARK AVE","758442.640000000000","2920591.090000000000","42.2616284970682","-71.1221697605252"
"2019-02-09 02:56:00","mv","Intersection",,"AMERICAN LEGION HWY","FRANKLIN HILL AVE","766495.410000000000","2933117.620000000000","42.2959004256898","-71.0922002272692"
"2019-02-09 00:51:57","mv","Street","BLUE HILL AVE","WESTVIEW ST","HARVARD ST","767626.540000000000","2931695.860000000000","42.2921108743522","-71.0887485927628"
"2019-02-08 23:36:48","mv","Street","WILLIAM J DAY BLVD","WILLIAM T MORRISSEY BLVD","BABE RUTH PARK DR","778131.550000000000","2942877.800000000000","42.3226686391234","-71.0493439237627"
"2019-02-08 23:11:14","mv","Intersection",,"GLEN LN","BLUE HILL AVE","768263.680000000000","2935325.030000000000","42.3019343002247","-71.085624769674"
"2019-02-08 22:29:07","mv","Intersection",,"COURTLAND RD","GREENDALE RD","765641.090000000000","2929569.360000000000","42.2861749414311","-71.0954201459605"
"2019-02-08 20:06:46","mv","Intersection",,"HARVARD ST","WALK HILL ST","764514.340000000000","2928164.860000000000","42.2823354889144","-71.0996085303271"
"2019-02-08 17:53:07","mv","Intersection",,"GALLIVAN BLVD","MAGDALA ST","774317.550000000000","2927605.110000000000","42.2806675104567","-71.0633926279841"
"2019-02-08 17:51:02","ped","Street","BOYLSTON ST","GLOUCESTER ST","FAIRFIELD ST","769155.180000000000","2952424.190000000000","42.3488380489864","-71.0820170182724"
"2019-02-08 14:42:32","mv","Intersection",,"PETER PARLEY RD","WASHINGTON ST","763655.650000000000","2938767.380000000000","42.3114404658829","-71.1025991693072"
"2019-02-08 12:58:16","ped","Street","POND ST","CENTRE ST","GROVENOR RD","760470.980000000000","2939895.470000000000","42.3146666110656","-71.1142984875082"
"2019-02-08 08:07:17","mv","Intersection",,"WILLIAM J DAY BLVD","L ST","781848.750000000000","2945394.390000000000","42.3293729439723","-71.0352046243664"
"2019-02-08 05:56:56","mv","Street","ROCKINGHAM AVE","WASHINGTON ST","WASHINGTON ST","749054.350000000000","2921574.590000000000","42.264590651724","-71.1571156177416"
"2019-02-07 20:35:13","mv","Intersection",,"CANTERBURY ST","HYDE PARK AVE","759240.440000000000","2926789.630000000000","42.2786280388072","-71.1191202972603"
"2019-02-07 14:46:30","mv","Street","RUTHERFORD AVE","MISHAWUM ST","BUNKER HILL INDUSTRIAL PARK","771938.790000000000","2963623.450000000000","42.3796437211806","-71.0711989985639"
"2019-02-07 10:04:41","ped","Intersection",,"KNEELAND ST","WASHINGTON ST","774300.140000000000","2953232.830000000000","42.3509913391254","-71.0629717400578"
"2019-02-07 06:31:30","ped","Intersection",,"A ST","W FOURTH ST","776117.180000000000","2949648.900000000000","42.3411312025301","-71.0563187871751"
"2019-02-06 17:48:12","mv","Intersection",,"HYDE PARK AVE","CLAY ST","758070.140000000000","2919305.840000000000","42.2581061826227","-71.1235667946523"
"2019-02-06 12:47:13","ped","Street","COLUMBUS AVE","CLEAVES ST","WALNUT AVE","765257.010000000000","2939408.620000000000","42.3138093752255","-71.0958473511998"
"2019-02-06 11:42:28","mv","Intersection",,"BLUE HILL AVE","DEVON ST","769346.790000000000","2938576.880000000000","42.3108430379241","-71.0815620644525"
"2019-02-06 06:25:28","ped","Street","COLUMBUS AVE","DIMOCK ST","BRAGDON ST","764777.320000000000","2941704.330000000000","42.3194851366371","-71.0984075116979"
"2019-02-06 05:44:08","mv","Intersection",,"SUMMER ST","DORCHESTER AVE","777028.640000000000","2953404.490000000000","42.3514235732515","-71.0528746588911"
"2019-02-05 23:40:34","mv","Street","NORFOLK ST","WHITFIELD ST","WITHINGTON ST","771749.540000000000","2930715.860000000000","42.2893351645732","-71.0729488665796"
"2019-02-05 17:26:18","mv","Intersection",,"COOKSON TER","BABSON ST","766610.780000000000","2924660.350000000000","42.2726916026049","-71.0919233544388"
"2019-02-05 16:58:44","mv","Street","RIVER ST","WOOD AVE","REDDY AVE","761509.250000000000","2920581.400000000000","42.2616846731682","-71.1108922833"
"2019-02-05 16:11:12","ped","Intersection",,"CENTRE ST","HASTINGS ST","749292.370000000000","2929320.360000000000","42.2856885710159","-71.1558423975798"
"2019-02-05 15:13:28","mv","Intersection",,"HUMBOLDT AVE","SEAVER ST","766485.440000000000","2938209.070000000000","42.3098717798504","-71.0921470928188"
"2019-02-05 15:05:27","ped","Street","HARRISON AVE","JOHNNY CT","PINE ST","774295.550000000000","2951955.900000000000","42.3474403724014","-71.0627980500923"
"2019-02-05 11:21:10","mv","Intersection",,"COLUMBIA RD","MASSACHUSETTS AVE","774756.610000000000","2942095.100000000000","42.320422622085","-71.0614949082776"
"2019-02-05 09:22:28","mv","Intersection",,"HAMPDEN ST","MELNEA CASS BLVD","771134.720000000000","2946002.190000000000","42.3311941476621","-71.0748151792932"
"2019-02-05 07:49:43","mv","Intersection",,"W SERVICE RD","MASSPORT HAUL RD","778262.460000000000","2951547.690000000000","42.3463106350175","-71.0483466355495"
"2019-02-05 07:47:07","ped","Intersection",,"CAMBRIDGE ST","BOWDOIN ST","774311.660000000000","2956951.940000000000","42.3611964892047","-71.0628586108882"
"2019-02-05 07:41:09","mv","Street","I93 ",,,"776069.880000000000","2953068.590000000000","42.3505170900693","-71.0564322516279"
"2019-02-05 07:32:16","mv","Other",,,,"774007.120000000000","2949030.140000000000","42.3394631600602","-71.0641351805111"
"2019-02-05 06:33:38","mv","Intersection",,"ALWIN ST","LEIGHTON RD","753053.940000000000","2917690.340000000000","42.2537323604819","-71.1421215403748"
"2019-02-04 21:26:26","mv","Street","BLUE HILL AVE","INGLESIDE ST","EDGEWOOD ST","770305.660000000000","2940978.960000000000","42.317421963464","-71.0779780763535"
"2019-02-04 20:57:12","mv","Intersection",,"SEAVER ST","ELM HILL AVE","767333.100000000000","2937399.370000000000","42.3076387559169","-71.0890277313845"
"2019-02-04 20:04:41","mv","Street","SOLDIERS FIELD RD","N BEACON ST","SOLDIERS FIELD PL","748792.670000000000","2955902.240000000000","42.358959857173","-71.1573816835524"
"2019-02-04 19:30:18","bike","Street","OLD COLONY AVE","COLUMBIA RD","COLUMBIA RD","777123.430000000000","2943240.940000000000","42.3235364139792","-71.052423661993"
"2019-02-04 19:22:41","mv","Other",,,,"772564.100000000000","2961519.080000000000","42.373753179786","-71.0692392044466"
"2019-02-04 16:27:45","ped","Intersection",,"WARREN ST","ZEIGLER ST","768834.410000000000","2945339.640000000000","42.3294072351372","-71.0833342179072"
"2019-02-04 15:21:49","ped","Street","WARREN ST","ZEIGLER ST","TABER ST","768692.190000000000","2945448.970000000000","42.3296365075058","-71.0832856410831"
"2019-02-04 15:17:33","ped","Intersection",,"BIRD ST","COLUMBIA RD","773168.610000000000","2939973.630000000000","42.3146234681459","-71.0674064725926"
"2019-02-04 14:48:46","ped","Intersection",,"WASHINGTON ST","ESSEX ST","774397.170000000000","2953742.570000000000","42.3523887124389","-71.0626031191782"
"2019-02-04 10:13:16","mv","Street","BROOKLINE AVE","FULLERTON ST","PARK DR","763760.070000000000","2950510.330000000000","42.3437567004553","-71.1021802409144"
"2019-02-04 00:36:51","mv","Intersection",,"COURTLAND RD","MORTON ST","766171.930000000000","2929693.230000000000","42.2865079227073","-71.0934561914556"
"2019-02-03 23:59:27","mv","Other",,,,"770509.180000000000","2965151.670000000000","42.3837492618931","-71.0767771735131"
"2019-02-03 23:57:40","mv","Other",,,,"778022.880000000000","2935204.240000000000","42.3014670838763","-71.0495521381343"
"2019-02-03 22:51:05","mv","Other",,,,"784944.700000000000","2962188.440000000000","42.3754092117487","-71.0234084472086"
"2019-02-02 22:45:41","ped","Street","ENDICOTT ST","CROSS ST","MORTON ST","775828.690000000000","2957833.520000000000","42.3635932008222","-71.0572365772695"
"2019-02-02 21:46:15","mv","Street","COLUMBIA RD","RAMP - RT 93 NB TO COLUMBIA RO","OLD COLONY AVE","777222.020000000000","2942182.070000000000","42.3214361599285","-71.0523812085978"
"2019-02-02 21:10:45","bike","Street","HUNTINGTON AVE","BELVIDERE ST","MASSACHUSETTS AVE","768950.640000000000","2951003.160000000000","42.3448081468587","-71.0826000364893"
"2019-02-02 18:03:37","mv","Street","BLUE HILL AVE","FLOYD ST","WESTVIEW ST","767390.990000000000","2931196.170000000000","42.2906708751571","-71.0892275863713"
"2019-02-02 16:01:49","mv","Street","RAMP - TO I-93 NORTH ",,,"776083.420000000000","2952775.990000000000","42.3497129175129","-71.0563855232198"
"2019-02-02 00:41:11","mv","Street","WILLIAM F MCCLELLAN HWY",,,"780980.720000000000","2961485.670000000000","42.3735429750954","-71.0380959598359"
"2019-02-01 23:53:21","mv","Street","EIGHTH ST","DORCHESTER ST","PATTERSON WAY","777659.190000000000","2946480.740000000000","42.33251102253","-71.0505659382185"
"2019-02-01 23:02:16","ped","Intersection",,"WASHINGTON ST","SOUTHERN AVE","772056.140000000000","2931349.510000000000","42.2909738372482","-71.0716796769643"
"2019-02-01 21:38:40","mv","Street","SAINT BOTOLPH ST","GARRISON ST","FOLLEN ST","769778.880000000000","2951225.740000000000","42.3456463302236","-71.0798866297605"
"2019-02-01 14:20:31","mv","Intersection",,"WALK HILL ST","AMERICAN LEGION HWY","762582.860000000000","2930111.240000000000","42.2877011460011","-71.1067129171715"
"2019-02-01 13:37:02","mv","Street","LITHGOW ST","WAINWRIGHT ST","TALBOT AVE","773100.330000000000","2931151.510000000000","42.290555920647","-71.0679055377378"
"2019-02-01 12:55:19","ped","Intersection",,"BRAINERD RD","KELTON ST","754672.320000000000","2951414.400000000000","42.3462545370032","-71.1356115433811"
"2019-02-01 11:59:16","mv","Street","BROOKLINE AVE","OVERLAND ST","RALPHS WAY","764439.160000000000","2951338.530000000000","42.3460691808074","-71.0997365756027"
"2019-02-01 11:52:48","ped","Intersection",,"TREMONT ST","WORTHINGTON ST","763602.150000000000","2946793.390000000000","42.3334648923912","-71.1026587348571"
"2019-02-01 08:33:36","mv","Intersection",,"WALDEMAR AVE","WILLIAM F MCCLELLAN HWY","788151.850000000000","2968811.940000000000","42.3935342664562","-71.0113990238218"
"2019-02-01 07:55:05","mv","Street","MORELAND ST","PERRIN ST","BLUE HILL AVE","770532.810000000000","2943110.020000000000","42.323118698754","-71.0772092778156"
"2019-02-01 07:46:03","bike","Intersection",,"PLEASANT ST","HANCOCK ST","775181.650000000000","2938275.000000000000","42.3099340937782","-71.0599961494908"
"2019-02-01 03:11:32","mv","Street","SARATOGA ST","TRIDENT ST","FORD ST","788977.870000000000","2966335.620000000000","42.3868735365802","-71.008420312537"
"2019-01-31 22:53:42","ped","Street","CAMBRIDGE ST","SPICE ST","RAMP","770623.400000000000","2965350.100000000000","42.3834274365148","-71.0757963987053"
"2019-01-31 22:07:37","mv","Intersection",,"RIVER ST","HYDE PARK AVE","757925.770000000000","2918478.090000000000","42.2558365128312","-71.1241135678666"
"2019-01-31 20:34:53","mv","Street","HANCOCK ST","PLEASANT ST","HIGH ST","775105.890000000000","2938384.670000000000","42.3101038921964","-71.0603194723587"
"2019-01-31 18:11:32","ped","Intersection",,"HAVRE ST","GOVE ST","780773.870000000000","2961069.670000000000","42.3724022141671","-71.0388662508078"
"2019-01-31 17:04:40","mv","Intersection",,"MARTIN LUTHER KING JR BLVD","WALNUT AVE","767429.850000000000","2941898.880000000000","42.3199843526147","-71.0885898290292"
"2019-01-31 16:16:26","ped","Street","AMERICAN LEGION HWY","KINGBIRD RD","AUSTIN ST","766115.530000000000","2932341.140000000000","42.2938351922464","-71.0937523175225"
"2019-01-31 15:34:25","mv","Intersection",,"MALCOLM X BLVD","PUTNAM PL","767608.220000000000","2945742.870000000000","42.3305300613356","-71.0878616150244"
"2019-01-31 15:31:49","mv","Intersection",,"WESTCHESTER RD","CENTRE ST","757505.200000000000","2935630.620000000000","42.3029093964267","-71.1253888187112"
"2019-01-31 15:26:18","mv","Street","MCLELLAN ST","BLUE HILL AVE","DRUMMOND ST","768332.540000000000","2935095.870000000000","42.301158801598","-71.0855735081053"
"2019-01-31 15:21:07","mv","Other",,,,"775168.900000000000","2952747.810000000000","42.3496481738013","-71.0597671280277"
"2019-01-31 12:42:45","mv","Intersection",,"WASHINGTON ST","CORNWALL ST","763672.960000000000","2938793.380000000000","42.3115115899264","-71.102534724974"
"2019-01-31 11:20:46","mv","Intersection",,"BLUE HILL AVE","WARREN ST","769064.970000000000","2938101.080000000000","42.3095412078489","-71.0826125715869"
"2019-01-31 11:07:43","mv","Intersection",,"DEVON ST","NORMANDY ST","769882.190000000000","2938231.570000000000","42.3098882657243","-71.0795889628372"
"2019-01-31 09:20:49","mv","Intersection",,"FANEUIL ST","BROOKS ST","747208.430000000000","2953619.410000000000","42.3523893520207","-71.1631891811942"
"2019-01-31 08:36:14","ped","Intersection",,"MASSACHUSETTS AVE","HARRISON AVE","771043.070000000000","2947377.920000000000","42.334970453129","-71.0751287786173"
"2019-01-31 08:26:05","mv","Intersection",,"BLUE HILL AVE","COLUMBIA RD","768357.960000000000","2935862.080000000000","42.3034067375625","-71.0852666091377"
"2019-01-31 07:13:11","mv","Intersection",,"JIMMY FUND WAY","BROOKLINE AVE","762069.210000000000","2948432.150000000000","42.3379811698212","-71.1083002740912"
"2019-01-31 00:13:42","mv","Other",,,,"759178.530000000000","2959301.000000000000","42.3678415550603","-71.1188121786622"
"2019-01-30 19:47:29","mv","Intersection",,"MORTON ST","FOREST HILLS ENTRANCE DR","762610.820000000000","2934794.520000000000","42.3005520074892","-71.1065297434742"
"2019-01-30 19:32:13","bike","Street","BLACKFAN CIR","LONGWOOD AVE","AVENUE LOUIS PASTEUR","762990.990000000000","2948589.090000000000","42.3382447088782","-71.1046357615443"
"2019-01-30 18:45:18","mv","Intersection",,"DUDLEY ST","E COTTAGE ST","771859.540000000000","2942429.630000000000","42.321380956897","-71.0722008974672"
"2019-01-30 18:44:37","ped","Intersection",,"ATLANTIC AVE","SEAPORT BLVD","777401.320000000000","2954616.870000000000","42.3547449990351","-71.0514723805431"
"2019-01-30 17:42:47","ped","Intersection",,"MATTAPAN ST","FOTTLER RD","765488.280000000000","2926662.100000000000","42.2781992098491","-71.0960357553699"
"2019-01-30 16:27:09","ped","Street","BATTERY WHRF","BATTERY ST","DEAD END","777679.630000000000","2959202.740000000000","42.3672265680833","-71.050319067863"
"2019-01-30 15:41:46","mv","Intersection",,"GALLIVAN BLVD","RITA RD","777645.120000000000","2928562.360000000000","42.2832468647368","-71.0510777408543"
"2019-01-30 15:24:11","mv","Other",,,,"777343.870000000000","2941386.580000000000","42.3184415178201","-71.0519420408389"
"2019-01-30 12:49:27","mv","Intersection",,"FRANKLIN HILL AVE","FERMOY HEIGHTS AVE","766834.970000000000","2932901.120000000000","42.2953018750517","-71.0909489942017"
"2019-01-30 10:49:03","mv","Street","BLUE HILL AVE","DONALD RD","GREENOCK ST","767152.920000000000","2931105.960000000000","42.290331299182","-71.0895824348449"
"2019-01-30 10:05:31","mv","Street","PARIS ST","MERIDIAN ST","MAVERICK ST","780793.750000000000","2960570.940000000000","42.3711189904666","-71.0390557883862"
"2019-01-30 09:47:30","mv","Other",,,,"774473.650000000000","2959327.290000000000","42.3677122049131","-71.0622141426475"
"2019-01-30 09:26:15","mv","Intersection",,"HUNTINGTON AVE","RUGGLES ST","765503.710000000000","2948342.590000000000","42.337691432768","-71.0955989120101"
"2019-01-30 09:24:55","mv","Intersection",,"CHELSEA ST","GEORGE R. VISCONTI RD","781808.750000000000","2961341.920000000000","42.3731338533206","-71.0350310548508"
"2019-01-30 04:40:01","ped","Street","LAKE ST","CENACLE RD","TRAPELO ST","747631.540000000000","2951542.700000000000","42.3467595734989","-71.161851008396"
"2019-01-29 23:30:44","mv","Intersection",,"MAIN ST","ALFORD ST","771298.480000000000","2965530.930000000000","42.3847791692515","-71.0738487249384"
"2019-01-29 22:55:14","mv","Intersection",,"GORDON AVE","SUMMER ST","757384.760000000000","2918678.840000000000","42.256393913141","-71.1261087204459"
"2019-01-29 18:40:29","mv","Intersection",,"BEACON ST","CHESTNUT HILL DRWY","747474.430000000000","2946910.950000000000","42.3339781677481","-71.1623033762511"
"2019-01-29 16:47:19","mv","Street","SOLDIERS FIELD RD","ELIOT BRG","ELIOT BRG","756268.830000000000","2960950.990000000000","42.3724011549064","-71.1295498935048"
"2019-01-29 16:25:06","mv","Street","WARREN ST","ROCKVILLE PARK","MORELAND ST","768926.110000000000","2943879.950000000000","42.3253689695527","-71.0831558606645"
"2019-01-29 12:13:07","mv","Street","BOYLSTON ST","CHARLESGATE","PARK DR","765949.360000000000","2951546.110000000000","42.3462681563533","-71.0935463102053"
"2019-01-29 11:27:09","mv","Intersection",,"CUMMINS HWY","WOODHAVEN ST","764894.030000000000","2923769.350000000000","42.2702689955441","-71.0982819328617"
"2019-01-29 11:18:10","mv","Intersection",,"HAMPDEN ST","DUBOIS ST","771067.790000000000","2944951.640000000000","42.3283123140856","-71.0750820563851"
"2019-01-28 22:30:46","mv","Street","WASHINGTON ST","WHEATLAND AVE","MELVILLE AVE","771936.760000000000","2932249.850000000000","42.2934577191532","-71.0718728415485"
"2019-01-28 12:12:15","mv","Intersection",,"COMMONWEALTH AVE","BUICK ST","760034.300000000000","2953249.940000000000","42.3512267509322","-71.1157463791495"
"2019-01-28 02:59:22","mv","Intersection",,"KNEELAND ST","JOHN F. FITZGERALD SURFACE RD","775177.110000000000","2952933.920000000000","42.3501587476787","-71.0597332030713"
"2019-01-28 02:34:41","mv","Street","ADAMS ST","LEEDSVILLE ST","ROBINSON ST","775045.130000000000","2936001.010000000000","42.3036406636187","-71.060781448875"
"2019-01-27 17:19:47","mv","Other",,,,"775519.650000000000","2958095.810000000000","42.3643182107574","-71.0583671635933"
"2019-01-27 15:01:15","ped","Intersection",,"SEAVER ST","BLUE HILL AVE","768353.380000000000","2936581.580000000000","42.3053811455022","-71.0852706073606"
"2019-01-27 07:06:39","mv","Street","SOUTHAMPTON ST","ATKINSON ST","MASSACHUSETTS AVE","772234.920000000000","2946322.030000000000","42.3322234018989","-71.0706798557751"
"2019-01-27 01:27:31","mv","Intersection",,"COLUMBUS AVE","DIMOCK ST","764811.900000000000","2941734.520000000000","42.3195675833158","-71.0982727589971"
"2019-01-26 23:47:29","mv","Intersection",,"JAMAICAWAY","PERKINS ST","759859.090000000000","2942243.640000000000","42.3210271850092","-71.1165775830022"
"2019-01-26 22:35:52","mv","Other",,,,"784577.170000000000","2958080.880000000000","42.364143673697","-71.0248532824538"
"2019-01-26 21:21:41","mv","Intersection",,"GAINSBOROUGH ST","SAINT STEPHEN ST","767735.600000000000","2949936.650000000000","42.3420362538793","-71.0873155005791"
"2019-01-26 20:51:51","mv","Intersection",,"RUGGLES ST","TREMONT ST","767439.170000000000","2947344.830000000000","42.3349281402882","-71.0884582095429"
"2019-01-26 19:58:37","mv","Intersection",,"COLUMBUS AVE","RITCHIE ST","764730.350000000000","2942852.990000000000","42.3226377704839","-71.0985548299738"
"2019-01-26 19:28:11","mv","Intersection",,"COMMONWEALTH AVE","CHARLESGATE W","766220.230000000000","2952534.790000000000","42.3491856128879","-71.0928747759874"
"2019-01-26 15:49:14","mv","Intersection",,"LINCOLN ST","LEO M BIRMINGHAM PKWY","751444.540000000000","2956002.980000000000","42.3588829781315","-71.1474813383496"
"2019-01-26 15:14:26","mv","Street","STOCKTON ST","WASHINGTON ST","MILTON AVE","771058.940000000000","2928142.050000000000","42.2823311226236","-71.0754827413119"
"2019-01-26 13:33:37","mv","Intersection",,"SARATOGA ST","SWIFT ST","785140.510000000000","2964500.430000000000","42.3817503057168","-71.0226359079407"
"2019-01-26 09:03:50","mv","Street","DORCHESTER ST",,,"779388.700000000000","2948045.210000000000","42.3366026635874","-71.0441218400018"
"2019-01-26 03:41:17","mv","Intersection",,"MAPLE ST","CHENEY ST","768337.720000000000","2938060.130000000000","42.3094385729033","-71.085301923852"
"2019-01-25 21:47:39","ped","Intersection",,"WASHINGTON ST","BISHOP JOE L SMITH WAY","769408.100000000000","2936854.120000000000","42.3061148710122","-71.0813666589278"
"2019-01-25 19:35:33","mv","Intersection",,"COLUMBIA RD","BUTTONWOOD ST","776275.010000000000","2942348.480000000000","42.3210963494226","-71.0558756063613"
"2019-01-25 17:09:04","bike","Intersection",,"MELCHER ST","A ST","777952.370000000000","2952558.660000000000","42.3490892596651","-71.049473937641"
"2019-01-25 14:36:14","mv","Intersection",,"DANA AVE","TRUMAN PKWY","758382.580000000000","2916386.830000000000","42.2500923757341","-71.1224603780475"
"2019-01-25 13:01:20","mv","Street","BLUE HILL AVE","BRUNSWICK ST","DEVON ST","769403.000000000000","2938676.240000000000","42.3111151719113","-71.0813530299582"
"2019-01-25 11:30:15","mv","Intersection",,"CAMBRIDGE ST","WASHINGTON ST","750688.810000000000","2952381.910000000000","42.3489551746574","-71.1503323554106"
"2019-01-25 09:13:49","ped","Intersection",,"ADAMS ST","LINDEN ST","774781.300000000000","2936618.620000000000","42.3053945646767","-71.0615077163655"
"2019-01-25 08:01:15","mv","Street","VFW PKWY","BAKER ST","RIVERMOOR ST","744293.380000000000","2928057.140000000000","42.2830726547894","-71.17195862326"
"2019-01-25 07:56:53","mv","Other",,,,"779584.520000000000","2928851.500000000000","42.2840120486764","-71.0439051319674"
"2019-01-25 06:51:27","mv","Intersection",,"FULLER ST","MORTON ST","769401.730000000000","2927254.850000000000","42.2797739860347","-71.081564293031"
"2019-01-24 22:36:51","mv","Street","WOODFORD ST","MAGNOLIA ST","MAGNOLIA ST","772292.300000000000","2941169.130000000000","42.318042385121","-71.070564712666"
"2019-01-24 18:53:47","ped","Street","PARK DR","QUEENSBERRY ST","JERSEY ST","765579.060000000000","2950182.460000000000","42.3425981096501","-71.0950230317262"
"2019-01-24 18:39:12","bike","Intersection",,"BOYLSTON ST","BURR ST","762010.520000000000","2941186.130000000000","42.3180985124621","-71.1086403142329"
"2019-01-24 17:51:33","ped","Street","DORCHESTER AVE","GREENWICH ST","ADAMS ST","775266.390000000000","2935586.710000000000","42.3025349920732","-71.0595712925325"
"2019-01-24 17:07:35","ped","Intersection",,"A ST","NECCO ST","777764.560000000000","2952223.400000000000","42.3481720187142","-71.0501752373515"
"2019-01-24 15:01:37","ped","Intersection",,"FRANKLIN ST","PEARL ST","776475.870000000000","2955103.660000000000","42.3560940628824","-71.0548867751107"
"2019-01-24 14:16:10","ped","Intersection",,"WILLIAM CARDINAL OCONNELL WAY","STANIFORD ST","774024.230000000000","2957322.660000000000","42.3622177883365","-71.0639150824958"
"2019-01-24 14:13:32","mv","Street","BLUE HILL AVE","WOOLSON ST","LANDOR RD","766634.040000000000","2928209.180000000000","42.2825394253543","-71.0919379002172"
"2019-01-24 13:32:22","mv","Intersection",,"S CONWAY ST","SOUTH ST","756107.700000000000","2930115.610000000000","42.2877925724956","-71.1306430767375"
"2019-01-24 12:34:45","ped","Street","CLARENDON ST","SAINT JAMES AVE","STUART ST","771018.430000000000","2952572.980000000000","42.3493764107277","-71.0745682164993"
"2019-01-24 11:11:00","mv","Intersection",,"HUNTINGTON AVE","BELVIDERE ST","769216.850000000000","2951183.150000000000","42.3454368915982","-71.0818139583239"
"2019-01-23 19:25:22","ped","Intersection",,"GLOUCESTER ST","NEWBURY ST","768583.910000000000","2952540.910000000000","42.3491711153868","-71.0841307537019"
"2019-01-23 18:55:09","ped","Intersection",,"A ST","W THIRD ST","776586.180000000000","2950190.900000000000","42.3426117578306","-71.0545735800218"
"2019-01-23 18:12:02","mv","Street","BEACON ST","MARKET ST","VINELAND ST","750528.580000000000","2955071.100000000000","42.3565964617363","-71.1507611319083"
"2019-01-23 14:42:26","ped","Street","WASHINGTON ST","WEST ST","TEMPLE PL","774642.700000000000","2954578.190000000000","42.3545644830471","-71.0614835654995"
"2019-01-23 12:27:35","ped","Street","STANIFORD ST","LONGFELLOW PL","WILLIAM CARDINAL OCONNELL WAY","773867.670000000000","2957439.830000000000","42.3625099074161","-71.0639120217458"
"2019-01-23 08:14:53","mv","Street","BLUE HILL AVE","RHOADES ST","MORTON ST","766638.300000000000","2929038.820000000000","42.2846511120078","-71.0914335214613"
"2019-01-23 07:00:05","ped","Intersection",,"SHAWMUT AVE","MARVIN ST","768277.660000000000","2945692.140000000000","42.3303819535325","-71.0853868114104"
"2019-01-23 00:17:06","bike","Street","MASSACHUSETTS AVE","CLEARWAY ST","SAINT STEPHEN ST","767888.540000000000","2950775.900000000000","42.3444429349248","-71.0863396729976"
"2019-01-22 22:31:49","mv","Intersection",,"LENOX ST","SHAWMUT AVE","769702.040000000000","2947729.400000000000","42.3359531495196","-71.08008210763"
"2019-01-22 16:08:42","mv","Street","BURRELL ST","DUDLEY ST","CLIFTON ST","772012.840000000000","2942960.700000000000","42.3227105652403","-71.071555762913"
"2019-01-22 16:03:29","mv","Street","NORTHAMPTON ST","FELLOWS ST","HARRISON AVE","771069.920000000000","2947012.440000000000","42.3338540126838","-71.075309814431"
"2019-01-22 14:46:36","mv","Intersection",,"BLUE HILL AVE","SUPPLE RD","768608.260000000000","2937088.520000000000","42.3067688111047","-71.0843192545612"
"2019-01-22 14:32:30","ped","Street","BROADWAY ","GREENBAUM ST","DORCHESTER AVE","775788.520000000000","2950197.620000000000","42.3427242791891","-71.0573366297158"
"2019-01-22 12:58:50","ped","Street","WASHINGTON ST","WIRT ST","WALDO TER","750412.740000000000","2952333.770000000000","42.3490170380078","-71.1513527342796"
"2019-01-22 12:56:37","mv","Street","BAIRD ST","BLUE HILL AVE","MORTON ST","766341.040000000000","2929522.080000000000","42.285899974144","-71.0928823414389"
"2019-01-22 12:01:33","mv","Other",,,,"776432.040000000000","2943325.150000000000","42.3237741246441","-71.0552761379171"
"2019-01-22 10:54:26","mv","Street","INDUSTRIAL DR",,,"754281.170000000000","2911679.360000000000","42.2376146964704","-71.1376271517616"
"2019-01-22 08:08:24","mv","Street","SEAVER ST","BLUE HILL AVE","NORMANDY ST","768789.010000000000","2936359.560000000000","42.304898161059","-71.0835778192225"
"2019-01-22 07:50:26","mv","Intersection",,"WASHINGTON ST","ARBORWAY","761022.160000000000","2935137.440000000000","42.3015129604056","-71.1123963752062"
"2019-01-22 06:01:23","mv","Other",,,,"771408.090000000000","2952115.740000000000","42.3479661787395","-71.0736911935087"
"2019-01-22 00:44:05","mv","Other",,,,"777363.690000000000","2941470.720000000000","42.3186721156624","-71.05186712236"
"2019-01-21 19:51:17","mv","Intersection",,"BENNINGTON ST","WILLIAM F MCCLELLAN HWY","784674.870000000000","2964027.690000000000","42.3804602461652","-71.0243690777533"
"2019-01-21 14:48:17","ped","Street","DALTON ST","SCOTIA ST","BOYLSTON ST","768180.390000000000","2951777.320000000000","42.3471870161806","-71.0852389489317"
"2019-01-21 13:46:01","mv","Street","COLUMBUS AVE","DIMOCK ST","BRAGDON ST","764778.200000000000","2941647.680000000000","42.3193296749712","-71.0984052455676"
"2019-01-21 13:03:23","mv","Intersection",,"W BROADWAY","D ST","777605.990000000000","2948815.900000000000","42.3388240448677","-71.0508282008048"
"2019-01-21 12:41:21","mv","Street","NORFOLK ST","CAPEN ST","CROWELL ST","769480.010000000000","2928954.200000000000","42.2842918363569","-71.0810776090014"
"2019-01-20 21:06:58","mv","Street","TRUMAN PKWY","METROPOLITAN AVE","DEAD END","761050.090000000000","2919291.260000000000","42.2580273209657","-71.1125568488035"
"2019-01-20 17:30:28","mv","Intersection",,"N WASHINGTON ST","ANTHONY RIP VALENTI WAY","775523.910000000000","2958416.650000000000","42.3651985396476","-71.0583452538668"
"2019-01-20 09:46:43","mv","Other",,,,"768175.770000000000","2952022.930000000000","42.3477552141858","-71.0856498855737"
"2019-01-20 06:12:18","mv","Street","ALLSTATE RD","SOUTHAMPTON ST","DISTRICT AVE","774367.030000000000","2945341.320000000000","42.3292242572487","-71.0625260164226"
"2019-01-20 03:57:40","mv","Street","NEWBURY ST","DARTMOUTH ST","EXETER ST","769997.360000000000","2952968.780000000000","42.3505538446383","-71.0790053848469"
"2019-01-20 03:28:13","mv","Intersection",,"SHELBY ST","LEXINGTON ST","783649.070000000000","2964301.930000000000","42.3812283938316","-71.0281600471392"
"2019-01-20 02:35:08","mv","Street","PARK DR","RIVERWAY","RIVERWAY","763558.850000000000","2950833.270000000000","42.3441293729065","-71.1035468659364"
"2019-01-20 02:12:17","ped","Intersection",,"COMMONWEALTH AVE","WASHINGTON ST","752688.820000000000","2950516.900000000000","42.3438147802498","-71.1429626433704"
"2019-01-20 01:00:53","mv","Other",,,,"759328.310000000000","2954628.840000000000","42.3550191919858","-71.1183352967855"
"2019-01-19 19:20:54","ped","Intersection",,"BLUE HILL AVE","MORTON ST","766693.350000000000","2928890.610000000000","42.2842986449676","-71.0915434257049"
"2019-01-19 19:06:30","mv","Intersection",,"GREENWOOD ST","HARVARD ST","769944.100000000000","2933393.620000000000","42.296611833616","-71.0794482693505"
"2019-01-19 18:15:33","mv","Intersection",,"JAMAICAWAY","PERKINS ST","759859.090000000000","2942243.640000000000","42.3210271850092","-71.1165775830022"
"2019-01-19 14:37:26","mv","Street","RIVER ST","PERKINS AVE","BARRY ST","756801.410000000000","2918010.160000000000","42.2546625447587","-71.1285010733186"
"2019-01-19 07:46:59","mv","Intersection",,"BROWN AVE","CUMMINS HWY","758338.520000000000","2927957.110000000000","42.28184269238","-71.1224339450614"
"2019-01-18 22:10:54","mv","Street","TERMINAL RD","TERMINAL A","TERMINAL B","785398.370000000000","2958235.760000000000","42.3653507244967","-71.0211135898958"
"2019-01-18 21:47:38","mv","Street","HIGHLAND ST","SPRING HILL RD","METROPOLITAN AVE","761149.380000000000","2917395.430000000000","42.2530390703467","-71.1124447223643"
"2019-01-18 16:51:37","mv","Street","COLUMBUS AVE","CLARENDON ST","DARTMOUTH ST","771251.970000000000","2951764.740000000000","42.3468505423861","-71.0740436693126"
"2019-01-18 15:30:12","mv","Street","HARBORSIDE DR","HOTEL DR","DEAD END","786220.490000000000","2955484.910000000000","42.3572542961073","-71.0194151031641"
"2019-01-18 10:56:34","mv","Other",,,,"777099.680000000000","2938852.520000000000","42.3114914654031","-71.0528940416814"
"2019-01-18 10:52:35","mv","Intersection",,"BLUE HILL AVE","STANWOOD ST","769225.850000000000","2938371.130000000000","42.3102800768277","-71.0820129118646"
"2019-01-18 06:10:04","ped","Intersection",,"COLUMBIA RD","DORCHESTER AVE","776035.400000000000","2942215.230000000000","42.3207341262316","-71.0567641562002"
"2019-01-18 04:45:44","ped","Intersection",,"MASSACHUSETTS AVE","COLUMBIA RD","774756.610000000000","2942095.100000000000","42.320422622085","-71.0614949082776"
"2019-01-17 20:28:17","mv","Street","FAIRBANKS ST","WASHINGTON ST","FANEUIL ST","747214.880000000000","2952998.760000000000","42.3506806206593","-71.1629676395802"
"2019-01-17 19:28:06","bike","Intersection",,"MASSACHUSETTS AVE","ALBANY ST","771507.330000000000","2946877.510000000000","42.3335909521113","-71.0734209940864"
"2019-01-17 19:11:52","ped","Street","MASSACHUSETTS AVE","GERARD ST","ISLAND ST","772343.020000000000","2946132.880000000000","42.3313645707408","-71.0707125316986"
"2019-01-17 15:51:05","mv","Street","BEACON ST","CHARLESGATE W","RALEIGH ST","765779.110000000000","2952729.260000000000","42.3495380374204","-71.0944028347264"
"2019-01-17 12:37:22","mv","Intersection",,"N WASHINGTON ST","CAUSEWAY ST","775596.450000000000","2959182.940000000000","42.3673002183205","-71.0580621494934"
"2019-01-17 10:28:44","ped","Street","PRESCOTT ST","SERVICE RD","DEAD END","784944.150000000000","2962186.260000000000","42.3748661616612","-71.0240373114234"
"2019-01-17 10:15:26","mv","Street","RADCLIFFE ST","HARVARD ST","VASSAR ST","770372.500000000000","2933973.070000000000","42.2981651013601","-71.078086156778"
"2019-01-17 08:59:19","mv","Intersection",,"CHILD ST","LEE ST","761195.830000000000","2937141.870000000000","42.3070110652839","-71.1117206754066"
"2019-01-17 04:43:56","mv","Street","MASSPORT HAUL RD","PUMPHOUSE RD","RAMP","780612.890000000000","2951481.600000000000","42.3459498366393","-71.0398097833195"
"2019-01-16 20:58:44","mv","Intersection",,"BACK ST","BERKELEY ST","771029.670000000000","2954803.390000000000","42.3553463379523","-71.0750415130645"
"2019-01-16 17:01:27","mv","Street","TRUMAN PKWY","DANA AVE","NEPONSET AVE","758541.760000000000","2916405.490000000000","42.250242916341","-71.1219802749055"
"2019-01-16 11:07:39","mv","Other",,,,"774473.650000000000","2959327.290000000000","42.3677122049131","-71.0622141426475"
"2019-01-16 10:30:04","mv","Intersection",,"COURTLAND RD","MORTON ST","766171.930000000000","2929693.230000000000","42.2865079227073","-71.0934561914556"
"2019-01-16 09:26:30","bike","Street","ANGELL ST","AMERICAN LEGION HWY","BLUE HILL AVE","767603.590000000000","2933117.720000000000","42.2958133683203","-71.0882701172293"
"2019-01-16 08:27:12","mv","Other",,,,"745637.580000000000","2955508.230000000000","42.3575892162127","-71.1689733946124"
"2019-01-16 08:07:52","ped","Street","EIGHTH ST","G ST","DOUGLAS ST","779638.820000000000","2946172.870000000000","42.3313398252474","-71.0433550853114"
"2019-01-16 05:15:57","mv","Street","LEVERETT CIR","DEAD END","DEAD END","772990.320000000000","2958908.770000000000","42.3667102107911","-71.0679025616508"
"2019-01-15 18:10:27","mv","Intersection",,"COMMONWEALTH AVE","KINROSS RD","750693.490000000000","2949450.510000000000","42.3409112440755","-71.1503594944014"
"2019-01-15 17:27:43","mv","Street","MALCOLM X BLVD","GAY ST","KING ST","766791.320000000000","2946247.350000000000","42.3312139553835","-71.0909702445142"
"2019-01-15 14:02:20","mv","Street","WASHINGTON ST","SCHOOL ST","BOYLSTON ST","764379.460000000000","2939858.810000000000","42.3143395038959","-71.0997443336008"
"2019-01-15 12:31:48","mv","Street","BRIGHTON AVE","LINDEN ST","HARVARD AVE","756039.550000000000","2953891.700000000000","42.3528861168856","-71.130545989022"
"2019-01-15 11:39:57","mv","Intersection",,"CLIFFORD ST","BLUE HILL AVE","770363.670000000000","2941575.380000000000","42.3190573117743","-71.0777477424122"
"2019-01-15 10:16:38","bike","Street","PARKER ST","GORE ST","DELLE AVE","764948.750000000000","2945892.740000000000","42.3309371818881","-71.0975334117207"
"2019-01-15 09:20:32","mv","Street","LAWRENCE AVE","MASCOMA ST","COLEUS PARK","770976.700000000000","2938805.030000000000","42.3112975135367","-71.0757056088303"
"2019-01-15 08:40:12","mv","Intersection",,"NEWMARKET SQ","THEODORE A GLYNN WAY","772833.210000000000","2945873.090000000000","42.3308164879976","-71.0685361978184"
"2019-01-15 08:13:05","mv","Street","DORCHESTER AVE","BROOKVALE ST","VALLEY RD","773605.960000000000","2926645.430000000000","42.2781084407241","-71.0664496495488"
"2019-01-15 08:02:43","bike","Street","NEW SUDBURY ST","BULFINCH PL","CONGRESS ST","775071.970000000000","2957021.340000000000","42.3616030671499","-71.0602648357555"
"2019-01-15 00:17:19","mv","Other",,,,"777680.870000000000","2964488.280000000000","42.3818282116827","-71.0502455902266"
"2019-01-14 22:22:34","mv","Intersection",,"ADAMS ST","LINDEN ST","774781.300000000000","2936618.620000000000","42.3053945646767","-71.0615077163655"
"2019-01-14 20:21:24","mv","Street","NORFOLK ST","MIDDLETON ST","MORTON ST","768115.130000000000","2928054.700000000000","42.282107471046","-71.0864993164577"
"2019-01-14 20:00:39","mv","Intersection",,"MORTON ST","NORFOLK ST","767924.530000000000","2927906.180000000000","42.2815810353232","-71.087011227094"
"2019-01-14 18:20:39","ped","Intersection",,"DORCHESTER AVE","VON HILLERN ST","775997.010000000000","2944125.900000000000","42.3259776255658","-71.0568694034334"
"2019-01-14 18:02:53","ped","Intersection",,"WHITE ST","MERIDIAN ST","780655.870000000000","2964040.930000000000","42.3805571112547","-71.0392435280111"
"2019-01-14 17:43:12","mv","Street","TURTLE POND PKWY","CHRISTY LN","VERNON ST","753810.480000000000","2916587.010000000000","42.2506467988837","-71.1390628332186"
"2019-01-14 14:50:30","mv","Intersection",,"MARION ST","PARIS ST","781969.630000000000","2962086.420000000000","42.3751743562257","-71.0344206524466"
"2019-01-14 14:37:46","mv","Street","VFW PKWY","BAKER ST","RIVERMOOR ST","744368.000000000000","2927085.150000000000","42.2791128656298","-71.1714565364797"
"2019-01-14 14:15:21","mv","Street","DORCHESTER AVE","HURLCROFT AVE","VAN WINKLE ST","773856.910000000000","2928170.720000000000","42.2822572479676","-71.0652742574776"
"2019-01-14 06:29:48","mv","Street","I93 ",,,"775067.210000000000","2958589.910000000000","42.3656756793397","-71.0600408011323"
"2019-01-14 01:58:41","mv","Other",,,,"776821.770000000000","2942545.790000000000","42.3216299459193","-71.0538500735526"
"2019-01-13 19:03:47","bike","Street","WARREN ST","MORELAND ST","WINTHROP ST","768969.840000000000","2944188.320000000000","42.326297221449","-71.0832446440638"
"2019-01-13 17:50:05","ped","Street","WASHINGTON ST","BLUE HILL AVE","BILODEAU RD","769180.690000000000","2937359.270000000000","42.307398957431","-71.0825083790383"
"2019-01-13 17:31:02","mv","Street","HAMILTON ST","BARRY ST","CLARKSON ST","772784.960000000000","2937337.850000000000","42.3075037131012","-71.068729188183"
"2019-01-13 17:23:32","mv","Intersection",,"RIVER ST","STANDARD ST","770246.540000000000","2924329.850000000000","42.2717361698769","-71.0784959433988"
"2019-01-13 16:29:48","bike","Street","CENTRE ST","GREATON RD","WEST ROXBURY PKWY","751308.380000000000","2929747.730000000000","42.2871202310497","-71.1483762096234"
"2019-01-13 15:25:31","mv","Street","BLUE HILL AVE","BAIRD ST","RHOADES ST","766794.160000000000","2929309.110000000000","42.2854463690332","-71.091166938743"
"2019-01-13 14:05:52","mv","Intersection",,"MAGAZINE ST","NORFOLK AVE","772046.040000000000","2944366.890000000000","42.3266943079439","-71.0714752969125"
"2019-01-13 13:56:02","mv","Intersection",,"ALBANY ST","E BERKELEY ST","774444.610000000000","2950322.900000000000","42.343004384865","-71.0624925075416"
"2019-01-13 13:38:06","ped","Intersection",,"HARVARD ST","BOWDOIN ST","771506.790000000000","2934415.870000000000","42.2993956567165","-71.0736533595032"
"2019-01-13 12:44:19","mv","Intersection",,"HARLOW ST","HOWARD AVE","771812.860000000000","2941729.380000000000","42.3194600832899","-71.0723864847607"
"2019-01-13 06:49:31","ped","Intersection",,"CENTRE ST","COLUMBUS AVE","764730.350000000000","2942852.990000000000","42.3226377704839","-71.0985548299738"
"2019-01-13 03:01:43","mv","Intersection",,"DEAD END","RAMP - WILLIAM T MORRISSEY BOU","777899.130000000000","2925527.000000000000","42.274913975365","-71.0501982192823"
"2019-01-13 01:58:15","mv","Street","COLUMBUS AVE","DAVENPORT ST","DOUGLASS PARK","768540.220000000000","2948555.700000000000","42.3383693838396","-71.0845206381432"
"2019-01-13 00:22:15","mv","Other",,,,"774007.120000000000","2949030.140000000000","42.3394631600602","-71.0641351805111"
"2019-01-12 19:14:37","mv","Intersection",,"CENTRE ST","WALTER ST","756168.140000000000","2933842.760000000000","42.298019403766","-71.130360015032"
"2019-01-12 15:24:48","ped","Street","HUMBOLDT AVE","FRANKLIN GDN","RUTHVEN ST","767081.530000000000","2939325.880000000000","42.3128489628088","-71.089742737183"
"2019-01-12 14:06:53","mv","Street","WASHINGTON ST","DENTON TER","AVERTON ST","755108.510000000000","2927585.860000000000","42.2807755295291","-71.1342256014616"
"2019-01-12 12:18:55","ped","Intersection",,"BOYLSTON ST","MASSACHUSETTS AVE","767612.720000000000","2951853.400000000000","42.3472975055308","-71.0877357491058"
"2019-01-12 12:16:09","ped","Intersection",,"W WALNUT PARK","COLUMBUS AVE","764810.990000000000","2940746.400000000000","42.3168561463046","-71.0982933308566"
"2019-01-12 07:47:38","mv","Street","ADAMS ST","FOX ST","HECLA ST","774574.470000000000","2937048.140000000000","42.3066325687432","-71.0620951558953"
"2019-01-12 03:31:19","mv","Intersection",,"CONGRESS ST","FRANKLIN ST","776264.620000000000","2954938.660000000000","42.3556443221378","-71.0556715118311"
"2019-01-12 01:50:46","ped","Street","HANOVER ST",,,"776335.790000000000","2957678.640000000000","42.3630766477623","-71.0552148024858"
"2019-01-11 23:13:32","mv","Intersection",,"FRONTAGE RD","GENERAL CASIMIR PULASKI SKWY","773824.670000000000","2947537.610000000000","42.3353701670616","-71.0648381737997"
"2019-01-11 21:38:31","mv","Street","BLUE HILL AVE","BAIRD ST","RHOADES ST","766722.960000000000","2929234.430000000000","42.2852078961622","-71.0912495799058"
"2019-01-11 21:22:53","mv","Street","WILLIAM F MCCLELLAN HWY","DEAD END","BOARDMAN ST","787662.830000000000","2968268.570000000000","42.3919108882707","-71.012906598551"
"2019-01-11 20:55:05","ped","Street","DORCHESTER AVE","BAILEY ST","FULLER ST","774277.000000000000","2928848.970000000000","42.2842737567584","-71.0647231836231"
"2019-01-11 20:02:33","mv","Intersection",,"ALLSTATE RD","MASSACHUSETTS AVE","773752.820000000000","2943697.460000000000","42.324833663182","-71.0651763119515"
"2019-01-11 17:45:15","mv","Street","OAKTON AVE","ADAMS ST","GLIDE ST","777068.550000000000","2929765.860000000000","42.2867745384674","-71.0532231462708"
"2019-01-11 16:47:59","mv","Intersection",,"HARVARD ST","WALK HILL ST","764514.340000000000","2928164.860000000000","42.2823354889144","-71.0996085303271"
"2019-01-11 12:34:38","mv","Intersection",,"PARKER ST","TREMONT ST","765085.590000000000","2946192.890000000000","42.3317980031486","-71.0971829237883"
"2019-01-11 10:28:19","mv","Street","COLUMBIA RD","ARION ST","DUDLEY ST","773514.590000000000","2940672.410000000000","42.3164302593079","-71.0658833238857"
"2019-01-11 08:42:19","mv","Intersection",,"DEDHAM PKWY","ALWIN ST","752666.440000000000","2918046.840000000000","42.2547150810682","-71.1435473531888"
"2019-01-11 07:54:41","ped","Street","CENTRE ST","STARR LN","SEAVERNS AVE","760609.070000000000","2939265.640000000000","42.3128624204026","-71.1141232517035"
"2019-01-11 04:36:34","mv","Other",,,,"778385.400000000000","2934690.860000000000","42.300053082248","-71.0482221404601"
"2019-01-10 22:02:25","ped","Intersection",,"MASSACHUSETTS AVE","MELNEA CASS BLVD","771859.870000000000","2946498.890000000000","42.332547160004","-71.0721241968683"
"2019-01-10 20:55:40","ped","Intersection",,"MOUNT VERNON ST","JOY ST","773717.860000000000","2955915.160000000000","42.3583598758965","-71.0650752176817"
"2019-01-10 18:49:47","ped","Street","MELNEA CASS BLVD","MASSACHUSETTS AVE","HAMPDEN ST","771429.170000000000","2946319.640000000000","42.3318270089297","-71.0734947285828"
"2019-01-10 17:20:19","ped","Intersection",,"BABE RUTH PARK DR","COLUMBIA RD","778373.730000000000","2945649.110000000000","42.330123147529","-71.0480506499747"
"2019-01-10 15:14:26","ped","Intersection",,"CUMMINS HWY","LIVERMORE ST","762145.940000000000","2924951.330000000000","42.2735475049152","-71.1084151855804"
"2019-01-10 15:13:10","mv","Street","CARLSON CIR","CHURCH ST","WELD ST","751538.580000000000","2932397.060000000000","42.2940187609073","-71.1476998776184"
"2019-01-10 10:00:47","mv","Intersection",,"WALNUT AVE","WESTMINSTER AVE","766095.220000000000","2940264.630000000000","42.3155174514006","-71.0935535175989"
"2019-01-10 08:38:43","mv","Intersection",,"BLUE HILL AVE","ESMOND ST","768064.720000000000","2934446.620000000000","42.2995265437814","-71.0863759750898"
"2019-01-10 08:18:15","ped","Street","KILBY ST","WATER ST","MILK ST","776382.510000000000","2955623.270000000000","42.3575194593024","-71.0552306797316"
"2019-01-10 05:43:17","mv","Other",,,,"777761.900000000000","2935510.160000000000","42.3023103214958","-71.0505108872251"
"2019-01-10 04:10:41","mv","Street","MOULTRIE ST","SEABORN ST","WASHINGTON ST","772251.950000000000","2931446.060000000000","42.2910628992491","-71.070886249765"
"2019-01-10 03:54:43","mv","Intersection",,"HARRISON AVE","HERALD ST","774238.240000000000","2951544.150000000000","42.3463584298712","-71.0632327207442"
"2019-01-09 20:19:27","mv","Intersection",,"MAMELON CIR","LINVALE TER","767443.720000000000","2924068.350000000000","42.2710561352673","-71.0888563403116"
"2019-01-09 19:07:23","ped","Intersection",,"BENNINGTON ST","CURTIS ST","785739.980000000000","2964571.440000000000","42.3819359294033","-71.0204156901133"
"2019-01-09 18:01:55","mv","Intersection",,"DECKARD ST","HUMBOLDT AVE","767890.720000000000","2940591.880000000000","42.3163917715768","-71.0869091337336"
"2019-01-09 17:21:57","mv","Intersection",,"MORTON ST","EVANS ST","768582.970000000000","2927644.610000000000","42.2808544957036","-71.0845827811619"
"2019-01-09 12:51:28","mv","Street","TREMONT ST","PRENTISS ST","WHITTIER ST","766495.400000000000","2946550.220000000000","42.3329570006873","-71.0921565707601"
"2019-01-09 11:51:16","mv","Street","BELGRADE AVE","MCCRAW ST","ANAWAN AVE","751949.530000000000","2929511.820000000000","42.2860333285255","-71.1460143604625"
"2019-01-09 08:21:26","mv","Street","HYDE PARK AVE","RESERVATION RD","MILTON ST","755985.150000000000","2912640.250000000000","42.2399097020521","-71.1315168634554"
"2019-01-09 06:27:42","bike","Street","ANTWERP ST","GOULD ST","JUSTINIAN WAY","753775.730000000000","2957089.110000000000","42.3617926571691","-71.1386999687779"
"2019-01-09 06:14:07","bike","Street","MASSACHUSETTS AVE","COLUMBUS AVE","TREMONT ST","769284.730000000000","2949366.560000000000","42.3404452339457","-71.0816040170129"
"2019-01-09 00:46:50","mv","Street","COLUMBIA RD","COLUMBIA ROAD ROTARY","BABE RUTH PARK DR","777447.550000000000","2945265.890000000000","42.3292756675985","-71.0517005862935"
"2019-01-08 19:04:48","mv","Intersection",,"KINGBIRD RD","AMERICAN LEGION HWY","765846.400000000000","2932066.710000000000","42.2930251541462","-71.0946175385884"
"2019-01-08 18:19:45","ped","Intersection",,"FOREST HILLS ST","GLEN RD","763695.840000000000","2937838.380000000000","42.308890726431","-71.1024665912257"
"2019-01-08 17:43:23","mv","Intersection",,"TRUMAN PKWY","NEPONSET VALLEY PKWY","757633.300000000000","2911045.340000000000","42.2354438964836","-71.125314510326"
"2019-01-08 16:39:23","bike","Street","ATLANTIC AVE","BEACH ST","EAST ST","776248.760000000000","2953038.310000000000","42.3506377889692","-71.0565201822602"
"2019-01-08 12:34:13","mv","Street","WASHINGTON ST","SHEPARD ST","CAMBRIDGE ST","750743.560000000000","2952083.670000000000","42.3482864297781","-71.1498316811059"
"2019-01-08 09:08:40","mv","Intersection",,"NORFOLK ST","OAKWOOD ST","771463.110000000000","2930652.360000000000","42.2890689664828","-71.0738843145975"
"2019-01-08 02:28:30","mv","Street","BEACON ST","ARTHUR ST","HERRICK ST","752665.490000000000","2954565.450000000000","42.3546437860814","-71.1431189614404"
"2019-01-08 02:17:14","mv","Street","RAMP - SUMNER TUNNEL TO STORRO ",,,"776224.720000000000","2957402.680000000000","42.362398417442","-71.0557722870198"
"2019-01-08 00:16:01","ped","Intersection",,"MELNEA CASS BLVD","MASSACHUSETTS AVE","771859.870000000000","2946498.890000000000","42.332547160004","-71.0721241968683"
"2019-01-07 23:30:58","mv","Street","CUMMINS HWY","OAKLAND CT","FAIRWAY ST","765931.530000000000","2922935.850000000000","42.2678678382947","-71.0946010319008"
"2019-01-07 21:37:48","mv","Intersection",,"MILTON AVE","FULLER ST","770977.430000000000","2927728.830000000000","42.2810532592552","-71.0757330176066"
"2019-01-07 20:24:05","mv","Street","BOUNDARY RD","WASHINGTON ST","GEORGETOWNE DR","751799.710000000000","2921749.190000000000","42.2648782055416","-71.1467000891281"
"2019-01-07 17:46:01","ped","Intersection",,"DORCHESTER AVE","CENTRE ST","774646.050000000000","2932336.110000000000","42.293645037194","-71.0620889756054"
"2019-01-07 17:19:17","mv","Street","DUDLEY ST","PEVEAR PL","GREENVILLE ST","769391.230000000000","2945014.100000000000","42.3284991547154","-71.0812807537897"
"2019-01-07 16:11:52","mv","Street","AMERICAN LEGION HWY","CANTERBURY ST","CURLEY ST","761817.290000000000","2929398.890000000000","42.2858597499208","-71.1096700473671"
"2019-01-07 14:09:12","mv","Street","WARREN ST","WOODBINE ST","CLIFFORD ST","769424.070000000000","2942000.340000000000","42.3201925980596","-71.081480320804"
"2019-01-07 12:22:02","mv","Intersection",,"BROOKLINE AVE","FENWAY","763429.530000000000","2950182.170000000000","42.3427660353583","-71.1032388480711"
"2019-01-07 11:59:21","mv","Street","MAFFA WAY","GARDNER ST","ALFORD ST","771037.840000000000","2965370.870000000000","42.3843374693946","-71.0748246516829"
"2019-01-06 21:44:19","mv","Street","DEDHAM ST","SHAWMUT AVE","IVANHOE ST","771642.110000000000","2950028.740000000000","42.3421282253259","-71.0730257010675"
"2019-01-06 20:50:15","mv","Street","CENTRE ST","HILLCROFT RD","LOUDERS LN","758138.880000000000","2937592.810000000000","42.3082011134179","-71.1227930182737"
"2019-01-06 16:54:46","mv","Street","TREMONT ST","SEWALL ST","BURNEY ST","764682.590000000000","2946180.630000000000","42.3320826718396","-71.0985221386189"
"2019-01-06 16:23:05","mv","Intersection",,"HAROLD ST","SEAVER ST","766105.720000000000","2939049.540000000000","42.3121830465631","-71.0935361045535"
"2019-01-06 16:01:30","mv","Street","HEATH ST","COLUMBUS AVE","BROMLEY ST","764474.810000000000","2943714.230000000000","42.3251255086589","-71.0993799582175"
"2019-01-06 15:27:28","ped","Street","GRANITE AVE","MILTON ST","HILL TOP ST","776692.920000000000","2926975.470000000000","42.2790012977182","-71.0541950333625"
"2019-01-06 13:57:35","mv","Street","WARREN ST","TOWNSEND ST","DECKARD ST","769049.990000000000","2940518.930000000000","42.316249299314","-71.0829606157765"
"2019-01-06 13:55:10","mv","Other",,,,"774909.900000000000","2958787.550000000000","42.3662249959621","-71.0606101502389"
"2019-01-06 11:43:29","mv","Street","STURBRIDGE ST","MONSON ST","SANFORD ST","771229.410000000000","2924888.600000000000","42.2732868695001","-71.0746937014224"
"2019-01-06 11:20:32","mv","Street","GLENWAY ST","BRENTON ST","HARVARD ST","769571.680000000000","2933426.130000000000","42.2967521429425","-71.0805960758339"
"2019-01-06 08:49:52","mv","Intersection",,"AMERICAN LEGION HWY","BLUE HILL AVE","767885.270000000000","2933934.350000000000","42.2981232314924","-71.0870484576717"
"2019-01-06 04:47:27","ped","Street","SUMNER ST","ANNAPOLIS ST","ANNABEL ST","774706.660000000000","2941029.400000000000","42.3175912436809","-71.062062677263"
"2019-01-06 03:48:11","mv","Street","NORWELL ST","VASSAR ST","HARVARD ST","770149.720000000000","2933614.840000000000","42.2972306039204","-71.0785331679784"
"2019-01-06 01:33:12","mv","Intersection",,"BERKELEY ST","STUART ST","771808.730000000000","2952691.410000000000","42.3495403279252","-71.0721984632538"
"2019-01-05 22:43:40","mv","Street","LAGRANGE ST","ADDINGTON RD","KEITH ST","746479.500000000000","2930233.900000000000","42.2883053122072","-71.1660632527835"
"2019-01-05 19:38:54","mv","Intersection",,"DANA AVE","TRUMAN PKWY","758382.580000000000","2916386.830000000000","42.2500923757341","-71.1224603780475"
"2019-01-05 19:17:59","ped","Street","COMMONWEALTH AVE","HEREFORD ST","MASSACHUSETTS AVE","767946.040000000000","2952885.860000000000","42.3498694023598","-71.0863901641217"
"2019-01-05 19:04:32","mv","Intersection",,"DUDLEY ST","BELDEN ST","773482.610000000000","2941046.380000000000","42.3175627657941","-71.0662253638389"
"2019-01-05 18:29:24","ped","Street","PARK ST","STURTEVANT ST","ADAMS ST","775901.250000000000","2934518.530000000000","42.299612018009","-71.0574051858238"
"2019-01-05 18:06:15","mv","Intersection",,"BLUE HILL AVE","BABSON ST","766252.000000000000","2923754.780000000000","42.2702113545936","-71.0932649349327"
"2019-01-05 18:01:32","mv","Street","WASHINGTON ST","RUTHERFORD AVE","CAUSEWAY ST","775233.850000000000","2959168.670000000000","42.3674215323812","-71.0590182712111"
"2019-01-05 16:37:55","mv","Street","NORFOLK ST","CAPEN ST","CROWELL ST","769480.010000000000","2928954.200000000000","42.2842918363569","-71.0810776090014"
"2019-01-05 16:26:40","mv","Street","HARRISON AVE","WILLIAM E MULLINS WAY","HERALD ST","774449.060000000000","2951429.040000000000","42.3461935325936","-71.0631726020788"
"2019-01-05 11:36:00","mv","Intersection",,"AMERICAN LEGION HWY","FRANKLIN HILL AVE","766495.410000000000","2933117.620000000000","42.2959004256898","-71.0922002272692"
"2019-01-05 10:41:34","mv","Street","MORTON ST","LUCERNE ST","THEODORE ST","767216.560000000000","2928648.010000000000","42.2837533271763","-71.0893816554807"
"2019-01-05 10:15:07","ped","Street","TERMINAL RD","TERMINAL B","TERMINAL C","786083.480000000000","2958820.330000000000","42.3656342382818","-71.0181621959938"
"2019-01-05 08:13:19","mv","Street","NEW RUTHERFORD AVE","RAMP - AUSTIN STREET TO NEW RU","RAMP - RUTHERFORD AVENUE TO RT","772502.350000000000","2961038.550000000000","42.3735703529116","-71.0675161007638"
"2019-01-05 07:28:16","mv","Street","RIVER ST","MEADOWBANK AVE","LEAHAVEN RD","769387.060000000000","2924788.020000000000","42.2713422462856","-71.0815225130724"
"2019-01-05 03:16:59","mv","Street","WASHINGTON ST",,,"764973.660000000000","2940662.960000000000","42.3165540601001","-71.0975621822592"
"2019-01-05 01:54:50","mv","Intersection",,"PURCHASE ST","HIGH ST","777387.130000000000","2955323.500000000000","42.3566842094218","-71.0515111319166"
"2019-01-05 00:33:59","bike","Street","FRANKLIN ST","WASHINGTON ST","HAWLEY ST","775224.210000000000","2954987.360000000000","42.3559854632409","-71.0591482182192"
"2019-01-04 21:41:31","ped","Street","ATLANTIC AVE","COMMERCIAL WHRF W","COMMERCIAL ST","777590.240000000000","2957771.260000000000","42.3633363054556","-71.0509464561502"
"2019-01-04 18:33:02","ped","Intersection",,"CAROL CIR","WASHINGTON ST","750936.760000000000","2922863.480000000000","42.2679520174228","-71.1498633705884"
"2019-01-04 18:07:12","ped","Intersection",,"BRIMMER ST","MOUNT VERNON ST","771850.470000000000","2955570.720000000000","42.3574406463141","-71.0719906060494"
"2019-01-04 17:50:59","mv","Intersection",,"DORCHESTER AVE","LINDEN ST","775517.610000000000","2936849.870000000000","42.3060187067695","-71.0587813661079"
"2019-01-04 17:39:17","mv","Street","DORCHESTER ST","WOODWARD ST","PREBLE ST","776076.390000000000","2945616.590000000000","42.3299569184607","-71.056450659916"
"2019-01-04 17:35:47","mv","Street","GAY HEAD ST","EDGE HILL ST","CENTRE ST","762969.170000000000","2943025.290000000000","42.3231220564785","-71.1052326110876"
"2019-01-04 17:33:59","mv","Intersection",,"WARREN ST","BLUE HILL AVE","769064.970000000000","2938101.080000000000","42.3095412078489","-71.0826125715869"
"2019-01-04 17:25:04","mv","Street","WASHINGTON ST","VASSAR ST","BOWDOIN AVE","771099.390000000000","2934745.980000000000","42.3004287009162","-71.0750372304672"
"2019-01-04 17:23:46","mv","Intersection",,"FARNHAM ST","HAMPDEN ST","771126.040000000000","2945753.140000000000","42.3305108639653","-71.0748518707607"
"2019-01-04 17:04:06","mv","Street","ALLSTATE RD","DISTRICT AVE","FRONTAGE RD","774772.860000000000","2944553.350000000000","42.327304820636","-71.0617710484075"
"2019-01-04 16:25:03","mv","Street","PATTERSON WAY","MARY BOYLE WAY","REV RICHARD A BURKE ST","777344.940000000000","2946120.420000000000","42.3312165193681","-71.051497063752"
"2019-01-04 09:33:33","bike","Intersection",,"BEACON ST","MASSACHUSETTS AVE","767133.970000000000","2953148.660000000000","42.3508580718265","-71.0894836662669"
"2019-01-04 00:20:23","mv","Street","WASHINGTON ST","CORNELL ST","CEDRUS AVE","754645.850000000000","2927027.580000000000","42.2792251085811","-71.1359217013546"
"2019-01-03 21:17:18","mv","Intersection",,"WALNUT AVE","HARRISHOF ST","766706.250000000000","2941028.320000000000","42.317605041441","-71.0912808182209"
"2019-01-03 20:42:34","mv","Street","BROADWAY ","F ST","DORCHESTER ST","778837.560000000000","2947685.900000000000","42.3358096838664","-71.0461723038599"
"2019-01-03 17:59:00","mv","Other",,,,"775778.970000000000","2952342.660000000000","42.3485277703811","-71.0575180710079"
"2019-01-03 17:52:05","ped","Intersection",,"DEXTER ST","DORCHESTER AVE","775966.550000000000","2945722.890000000000","42.3303602572894","-71.0569513668833"
"2019-01-03 17:30:30","ped","Street","IRON ST","CHANNEL CENTER ST","A ST","777248.250000000000","2950974.270000000000","42.3448391434596","-71.0520951416791"
"2019-01-03 16:01:16","mv","Intersection",,"PUTNAM ST","FALCON ST","782227.310000000000","2964568.930000000000","42.3819825026952","-71.033416777219"
"2019-01-03 14:23:08","mv","Street","WASHINGTON ST","SOUTHERN AVE","TALBOT AVE","772009.450000000000","2931244.400000000000","42.2906938585184","-71.0716654767073"
"2019-01-03 11:45:43","mv","Intersection",,"BREMEN ST","BENNINGTON ST","784139.780000000000","2963728.140000000000","42.3796464518694","-71.0263556533254"
"2019-01-03 05:04:29","mv","Intersection",,"DALY ST","ROSEMONT ST","776329.990000000000","2932022.110000000000","42.2927595115796","-71.055871128488"
"2019-01-02 22:12:56","mv","Street","CAMBRIDGE ST","N HARVARD ST","LINCOLN ST","756902.190000000000","2955662.930000000000","42.3577160944061","-71.1271854185169"
"2019-01-02 19:13:53","mv","Intersection",,"ISLAND ST","MASSACHUSETTS AVE","772304.730000000000","2945979.890000000000","42.3311168700907","-71.0704886349414"
"2019-01-02 18:51:39","mv","Street","BALLOU AVE","MOUNTAIN AVE","WILLOWWOOD ST","768472.640000000000","2928548.410000000000","42.2834632684223","-71.0850655754851"
"2019-01-02 17:36:56","ped","Intersection",,"GENEVA AVE","WESTVILLE ST","773202.730000000000","2935014.870000000000","42.3010159120639","-71.0673733132153"
"2019-01-02 16:58:07","ped","Street","BRINSLEY ST","COLUMBIA RD","STRATHCONA RD","770226.590000000000","2936672.740000000000","42.3056705131486","-71.0785563583198"
"2019-01-02 15:44:02","mv","Street","BLUE HILL AVE","WAVERLY ST","JULIAN ST","770428.350000000000","2941815.790000000000","42.3197129994759","-71.0777661928486"
"2019-01-02 15:39:37","mv","Intersection",,"GENERAL CASIMIR PULASKI SKWY","FRONTAGE RD","773824.670000000000","2947537.610000000000","42.3353701670616","-71.0648381737997"
"2019-01-02 15:19:19","ped","Street","CHARLES ST","CAMBRIDGE ST","FRUIT ST","772283.740000000000","2957251.430000000000","42.3620950353122","-71.0707938097697"
"2019-01-02 14:15:24","mv","Intersection",,"BEECH ST","WALWORTH ST","754406.380000000000","2926655.350000000000","42.2783174091286","-71.136985076718"
"2019-01-02 09:50:30","mv","Intersection",,"MASSACHUSETTS AVE","ALBANY ST","771507.330000000000","2946877.510000000000","42.3335909521113","-71.0734209940864"
"2019-01-02 07:00:01","mv","Street","BROADWAY ","GREENBAUM ST","DORCHESTER AVE","775788.520000000000","2950197.620000000000","42.3427242791891","-71.0573366297158"
"2019-01-01 15:21:33","mv","Street","BEACON ST","SPRUCE ST","CHARLES ST","772732.230000000000","2955257.580000000000","42.3563627223619","-71.0686536738323"
"2019-01-01 15:21:00","mv","Intersection",,"MAPLE ST","SEAVER ST","767770.150000000000","2937064.590000000000","42.3067143121452","-71.0874180086854"
"2019-01-01 11:50:42","mv","Intersection",,"DARTMOUTH ST","STUART ST","770677.220000000000","2952242.470000000000","42.3483239211827","-71.0763925040348"
"2019-01-01 09:05:17","mv","Intersection",,"JAMAICAWAY","FRANCIS PARKMAN DR","758390.270000000000","2939525.370000000000","42.313586100345","-71.1220532892672"
"2019-01-01 08:36:51","mv","Other",,,,"784628.800000000000","2958081.190000000000","42.3641437349737","-71.0246622378158"
"2019-01-01 07:38:15","mv","Street","DUDLEY ST","BROOK AVE","BURRELL ST","771786.080000000000","2942879.390000000000","42.3224942644794","-71.072763188518"
"2019-01-01 06:06:12","mv","Street","GENEVA AVE","NORMANDY ST","BISHOP JOE L SMITH WAY","769833.800000000000","2937292.120000000000","42.3072344147472","-71.0798879339683"
"2019-01-01 05:53:43","mv","Intersection",,"BYNNER ST","JAMAICAWAY","760372.900000000000","2943476.140000000000","42.324402870413","-71.1146571098856"
"2019-01-01 04:19:27","mv","Other",,,,"775525.580000000000","2944729.320000000000","42.327640139695","-71.058601165101"
"2019-01-01 03:11:58","mv","Street","ADAMS ST","WINTER ST","FOX ST","774528.020000000000","2937139.010000000000","42.3068932394538","-71.062262088945"
"2019-01-01 02:38:41","mv","Intersection",,"WASHINGTON ST","COLUMBIA RD","769624.220000000000","2936613.260000000000","42.3054510250734","-71.0805720932044"
"2019-01-01 02:24:46","ped","Intersection",,"ARBORWAY","SOUTH ST","760454.520000000000","2935218.730000000000","42.3017430841738","-71.1144932983711"
"2019-01-01 02:17:58","mv","Street","SARATOGA ST","BYRON ST","WORDSWORTH ST","786978.100000000000","2965482.340000000000","42.3843104029389","-71.0157423550332"
"2019-01-01 01:33:14","mv","Intersection",,"AMERICAN LEGION HWY","CURLEY ST","761908.160000000000","2929539.470000000000","42.2861406802209","-71.109216082304"
"2019-01-01 01:15:05","mv","Intersection",,"BERKELEY ST","TREMONT ST","772456.860000000000","2951145.900000000000","42.3452904627037","-71.0698296721774"
"2019-01-01 00:38:28","ped","Street","DARTMOUTH ST","DARTMOUTH PL","APPLETON ST","771191.130000000000","2951010.440000000000","42.3448733995634","-71.0747473599583"
"2019-01-01 00:05:43","mv","Intersection",,"SEAVER ST","MAPLE ST","767770.150000000000","2937064.590000000000","42.3067143121452","-71.0874180086854"
"2018-12-31 23:10:19","mv","Street","CUMMINS HWY","SAVANNAH AVE","CORMAN RD","763674.780000000000","2923908.330000000000","42.2708343564986","-71.1027135544628"
"2018-12-31 19:35:21","mv","Street","CHELSEA ST",,,"785188.220000000000","2965997.370000000000","42.3858535952069","-71.0224376283975"
"2018-12-31 19:10:57","ped","Intersection",,"MILTON AVE","GALLIVAN BLVD","771257.730000000000","2926675.850000000000","42.278159981992","-71.0747166265769"
"2018-12-31 16:55:24","mv","Street","CENTRE ST","ROBINWOOD AVE","BEAUFORT RD","760551.020000000000","2940737.650000000000","42.3167205281487","-71.1135871066817"
"2018-12-31 16:12:30","mv","Intersection",,"GENEVA AVE","BISHOP JOE L SMITH WAY","769850.540000000000","2937224.870000000000","42.3071262578375","-71.0797243105033"
"2018-12-31 15:54:35","ped","Intersection",,"MELNEA CASS BLVD","TREMONT ST","767678.150000000000","2947519.820000000000","42.3354051518107","-71.087571225469"
"2018-12-31 13:41:46","mv","Intersection",,"ALDIE ST","BAGNAL ST","754509.570000000000","2956123.660000000000","42.3591788085028","-71.1361392626645"
"2018-12-31 12:52:08","ped","Intersection",,"WASHINGTON ST","ARGUS PL","749582.540000000000","2952448.260000000000","42.3491496133189","-71.1544237625544"
"2018-12-31 00:14:43","mv","Street","ASHLEY ST","ANTRIM ST","BLACKINTON ST","790191.680000000000","2966816.470000000000","42.3878497548921","-71.0039945294358"
"2018-12-30 19:32:46","mv","Street","ALLSTATE RD","SOUTHAMPTON ST","DISTRICT AVE","774367.030000000000","2945341.320000000000","42.3292242572487","-71.0625260164226"
"2018-12-30 15:43:01","mv","Intersection",,"TALBOT AVE","BLUE HILL AVE","767655.200000000000","2932762.640000000000","42.2949110437047","-71.0879197886015"
"2018-12-30 10:32:16","mv","Intersection",,"MAIN ST","MIDDLESEX ST","772354.110000000000","2963909.930000000000","42.3803165990875","-71.0699717094774"
"2018-12-30 08:00:05","mv","Intersection",,"BICKNELL ST","BRADSHAW ST","768927.160000000000","2934124.620000000000","42.2986314370018","-71.0831938873458"
"2018-12-30 01:56:40","mv","Street","LAMBERT AVE","LAMBERT ST","NORFOLK ST","767057.480000000000","2944849.590000000000","42.3280711697914","-71.0897513953291"
"2018-12-30 01:23:00","ped","Street","ALPINE ST","ALPINE PL","AKRON ST","767956.980000000000","2943935.570000000000","42.3256264070103","-71.0867876823182"
"2018-12-30 01:14:11","mv","Street","SOLDIERS FIELD RD","CAMBRIDGE ST","RAMP - WESTERN AVENUE TO SOLDI","759325.810000000000","2956457.170000000000","42.3601037574642","-71.1175234763008"
"2018-12-29 23:22:07","mv","Intersection",,"MELNEA CASS BLVD","HAMPDEN ST","771134.720000000000","2946002.190000000000","42.3311941476621","-71.0748151792932"
"2018-12-29 22:08:51","ped","Intersection",,"STUART ST","BERKELEY ST","771808.730000000000","2952691.410000000000","42.3495403279252","-71.0721984632538"
"2018-12-29 20:30:13","mv","Intersection",,"WARREN ST","MORELAND ST","768809.220000000000","2944079.390000000000","42.3259493960229","-71.0834501340147"
"2018-12-29 17:25:22","mv","Street","HUNTINGTON AVE","HUNTINGTON AVE","COLBURN ST","761243.290000000000","2945916.870000000000","42.3310243856691","-71.1117220737489"
"2018-12-29 16:45:48","mv","Street","OAKLEY ST","BOWDOIN ST","GENEVA AVE","772754.770000000000","2935282.340000000000","42.3018826674596","-71.0690722858624"
"2018-12-29 14:16:19","mv","Street","COLUMBIA RD","H ST","I ST","780559.140000000000","2945878.350000000000","42.330572472251","-71.0399582917277"
"2018-12-29 08:03:28","mv","Street","MILTON ST","GRANVILLE ST","MILWOOD TER","776076.760000000000","2927486.100000000000","42.2801905984152","-71.0568758263949"
"2018-12-29 07:45:23","mv","Other",,,,"780941.430000000000","2961372.690000000000","42.3732312152794","-71.0382401031005"
"2018-12-29 01:46:46","ped","Street","SEAPORT BLVD","SLEEPER ST","BOSTON WHARF RD","778576.060000000000","2953791.600000000000","42.3524559998833","-71.0471489932773"
"2018-12-29 01:35:58","mv","Street","NORFOLK AVE","GERARD ST","MAGAZINE ST","772140.180000000000","2944528.380000000000","42.3267430736341","-71.0715720019781"
"2018-12-28 21:29:48","mv","Street","CRESTWAY RD","FAYWOOD AVE","WALDEMAR AVE","789848.940000000000","2968468.950000000000","42.3924376114721","-71.0052507637762"
"2018-12-28 18:46:14","mv","Street","I90 ",,,"771439.950000000000","2952065.560000000000","42.3478206194321","-71.0735739827809"
"2018-12-28 17:50:13","mv","Other",,,,"775816.140000000000","2957414.040000000000","42.3624432062865","-71.0572831973072"
"2018-12-28 17:21:30","mv","Intersection",,"CENTRE ST","WALTER ST","756168.140000000000","2933842.760000000000","42.298019403766","-71.130360015032"
"2018-12-28 15:56:25","mv","Intersection",,"ADAMS ST","ASHMONT ST","776476.400000000000","2930385.320000000000","42.288265973467","-71.0553615363929"
"2018-12-28 15:54:44","mv","Intersection",,"FENWAY","BROOKLINE AVE","763429.530000000000","2950182.170000000000","42.3427660353583","-71.1032388480711"
"2018-12-28 14:23:11","mv","Intersection",,"ARBORWAY","PRINCE ST","758339.270000000000","2939436.230000000000","42.3133421152965","-71.1222433063934"
"2018-12-28 14:18:35","ped","Intersection",,"PORTER ST","BENNINGTON ST","780816.140000000000","2962005.760000000000","42.3749702226252","-71.0386910900298"
"2018-12-28 14:02:49","mv","Street","MASSACHUSETTS AVE","GERARD ST","ISLAND ST","772343.020000000000","2946132.880000000000","42.3313645707408","-71.0707125316986"
"2018-12-28 11:24:37","mv","Street","HYDE PARK AVE","NEPONSET AVE","BLAKEMORE ST","759211.400000000000","2929638.780000000000","42.2863732196161","-71.1187484653206"
"2018-12-27 22:23:15","mv","Other",,,,"771845.360000000000","2956502.600000000000","42.3599978138824","-71.0719922112644"
"2018-12-27 19:50:58","mv","Intersection",,"CHELSEA ST","MARION ST","782244.500000000000","2961850.170000000000","42.3745219639336","-71.0334081996671"
"2018-12-27 13:41:02","mv","Street","CENTRE ST","LAMARTINE ST","WISE ST","764005.500000000000","2943020.270000000000","42.3228629241047","-71.1012578173086"
"2018-12-27 12:47:25","ped","Intersection",,"BENNINGTON ST","SARATOGA ST","789395.330000000000","2966327.460000000000","42.3866972431663","-71.0068490153877"
"2018-12-27 12:43:36","mv","Intersection",,"STUART ST","DARTMOUTH ST","770677.220000000000","2952242.470000000000","42.3483239211827","-71.0763925040348"
"2018-12-27 07:42:29","mv","Intersection",,"CAMBRIDGE ST","SPARHAWK ST","751558.420000000000","2952830.800000000000","42.3501771178302","-71.1471085561367"
"2018-12-27 01:25:19","mv","Other",,,,"753827.880000000000","2955449.130000000000","42.3573358299277","-71.1386720020638"
"2018-12-26 22:38:52","mv","Intersection",,"MORTON ST","HARVARD ST","766058.120000000000","2930122.760000000000","42.2876880686948","-71.093869231729"
"2018-12-26 17:53:35","ped","Street","BREMEN ST","GEORGE R. VISCONTI RD","MARION ST","782319.020000000000","2961477.740000000000","42.3736435650734","-71.0333688030049"
"2018-12-26 16:25:32","bike","Street","ALBANY ST","E CONCORD ST","MASSACHUSETTS AVE","771676.210000000000","2946904.680000000000","42.3338517118082","-71.0730270647328"
"2018-12-26 15:41:56","mv","Street","HYDE PARK AVE","WILLOW AVE","THATCHER ST","758747.410000000000","2922297.660000000000","42.2663081281815","-71.1210212058989"
"2018-12-26 15:32:37","mv","Street","HARVARD ST","ABBOT ST","VESTA RD","768353.990000000000","2932917.270000000000","42.2956276986414","-71.085556534586"
"2018-12-26 15:15:55","mv","Intersection",,"TREMONT ST","PRENTISS ST","766388.490000000000","2946605.100000000000","42.3329121381088","-71.0923571693671"
"2018-12-26 12:57:11","mv","Street","CANTERBURY ST","CUMMINS HWY","NAVARRE ST","759682.190000000000","2926950.500000000000","42.2787221539468","-71.1172704623198"
"2018-12-26 10:59:55","mv","Street","FREEPORT ST","ORCHARDFIELD ST","CLAYTON ST","776321.860000000000","2936543.330000000000","42.3047029130254","-71.0562996883785"
"2018-12-26 09:22:42","mv","Intersection",,"UNION ST","WINSHIP ST","750120.440000000000","2951342.900000000000","42.3461104657696","-71.1524505757909"
"2018-12-25 20:09:09","mv","Intersection",,"HAMPDEN ST","MELNEA CASS BLVD","771134.720000000000","2946002.190000000000","42.3311941476621","-71.0748151792932"
"2018-12-25 17:06:50","mv","Intersection",,"GENEVA AVE","BOWDOIN ST","772071.230000000000","2935896.120000000000","42.3034497810109","-71.0715394967997"
"2018-12-25 09:04:54","mv","Street","WOODROW AVE","ASHTON ST","BLUE HILL AVE","766881.650000000000","2929388.580000000000","42.2856567128034","-71.0908368761219"
"2018-12-25 07:13:37","mv","Street","HOMESTEAD ST","ELM HILL AVE","PLEASANTON ST","767696.800000000000","2938460.630000000000","42.310393830399","-71.0878908656989"
"2018-12-25 03:07:09","mv","Intersection",,"HUMBOLDT AVE","MARTIN LUTHER KING JR BLVD","768127.970000000000","2941606.630000000000","42.3191731363828","-71.0860137242724"
"2018-12-24 23:01:56","mv","Intersection",,"CUMMINS HWY","RICHMERE RD","764251.850000000000","2923846.120000000000","42.2704879331178","-71.1006532507357"
"2018-12-24 22:40:25","mv","Intersection",,"BLUE HILL AVE","WINTHROP ST","770783.170000000000","2943242.140000000000","42.3236252634781","-71.076166010748"
"2018-12-24 22:09:48","mv","Intersection",,"MASSACHUSETTS AVE","GENERAL CASIMIR PULASKI SKWY","771888.400000000000","2946525.630000000000","42.3326201427453","-71.0720181880499"
"2018-12-24 17:30:26","bike","Street","WASHINGTON ST","ARCHER TER","BONELL TER","767893.370000000000","2944931.170000000000","42.3281994200042","-71.0866746217651"
"2018-12-24 14:22:44","mv","Street","SEAVER ST","PARK VIEW ST","HAROLD ST","766220.690000000000","2938868.990000000000","42.3116582346693","-71.0933570680585"
"2018-12-24 08:37:10","mv","Street","MASSACHUSETTS AVE","PUBLIC ALLEY NO. 430","NEWBURY ST","767616.570000000000","2952261.090000000000","42.3482816778442","-71.088223835864"
"2018-12-24 07:45:05","mv","Intersection",,"MORELAND ST","WARREN ST","768809.220000000000","2944079.390000000000","42.3259493960229","-71.0834501340147"
"2018-12-23 23:11:45","mv","Intersection",,"ADAMSON ST","EVERETT ST","754207.450000000000","2955911.660000000000","42.3586006053533","-71.1372604043133"
"2018-12-23 19:11:44","mv","Other",,,,"777363.690000000000","2941470.720000000000","42.3186721156624","-71.05186712236"
"2018-12-23 18:31:17","mv","Street","BLUE HILL AVE",,,"768817.540000000000","2937705.880000000000","42.308308642448","-71.0834006943098"
"2018-12-23 17:55:43","mv","Intersection",,"CANTERBURY ST","MORTON ST","765371.830000000000","2932140.590000000000","42.2932340612458","-71.0963702575946"
"2018-12-23 15:28:49","mv","Intersection",,"MASSACHUSETTS AVE","ALLSTATE RD","773752.820000000000","2943697.460000000000","42.324833663182","-71.0651763119515"
"2018-12-23 10:51:52","mv","Other",,,,"766153.590000000000","2953275.930000000000","42.3512201946157","-71.0931082171735"
"2018-12-23 10:05:00","mv","Intersection",,"WALES ST","HARVARD ST","768615.670000000000","2933142.020000000000","42.2959392968285","-71.0843629543087"
"2018-12-23 08:21:34","mv","Intersection",,"MELNEA CASS BLVD","HARRISON AVE","769895.340000000000","2946303.620000000000","42.3320381444678","-71.0793931900821"
"2018-12-23 07:49:34","mv","Street","ROBEY ST","MARSHFIELD ST","E COTTAGE ST","772857.040000000000","2942873.850000000000","42.3225620290234","-71.0682898693425"
"2018-12-23 03:10:17","mv","Street","HARRY AGGANIS WAY","BRAVES FIELD WAY","DEAD END","759486.590000000000","2953954.710000000000","42.3532138824023","-71.1181675793004"
"2018-12-23 00:21:17","mv","Street","FULLER ST","WASHINGTON ST","MILTON AVE","772079.050000000000","2928056.000000000000","42.2819302302568","-71.0716540268738"
"2018-12-22 18:53:03","mv","Street","I93 ",,,"776189.660000000000","2957335.900000000000","42.3622163284134","-71.0559097336724"
"2018-12-22 14:11:14","mv","Intersection",,"NINTH ST","FIRST AVE","777094.730000000000","2962418.370000000000","42.376156830655","-71.0524551987448"
"2018-12-22 10:40:02","mv","Street","SOLDIERS FIELD RD","N BEACON ST","SOLDIERS FIELD PL","749207.600000000000","2956070.620000000000","42.3590867675845","-71.1557557092579"
"2018-12-22 09:38:07","mv","Intersection",,"FREEPORT ST","MILL ST","777617.430000000000","2935312.870000000000","42.3017710358074","-71.0510487639762"
"2018-12-22 09:00:21","mv","Street","FREEPORT ST","RAMP - FREEPORT STREET TO RT 9","RAMP - FREEPORT STREET TO RT 9","777523.970000000000","2935317.860000000000","42.3019005547542","-71.0512168567302"
"2018-12-22 08:27:00","mv","Street","I93 ",,,"772874.060000000000","2960999.790000000000","42.3723157837727","-71.0681058991204"
"2018-12-22 03:27:20","mv","Intersection",,"MARGINAL RD","SHAWMUT AVE","773568.240000000000","2952024.900000000000","42.3476870079229","-71.0657020694803"
"2018-12-22 03:20:39","mv","Other",,,,"777363.690000000000","2941470.720000000000","42.3186721156624","-71.05186712236"
"2018-12-22 02:26:18","mv","Street","CAMBRIDGE ST","SPICE ST","RAMP","770623.400000000000","2965350.100000000000","42.3834274365148","-71.0757963987053"
"2018-12-22 01:08:41","ped","Intersection",,"SOUTHAMPTON ST","TOPEKA ST","772981.550000000000","2946195.140000000000","42.3316981443285","-71.0679815741383"
"2018-12-22 00:48:28","ped","Intersection",,"BERKELEY ST","SAINT JAMES AVE","771687.110000000000","2953020.410000000000","42.3504447851797","-71.0726422738757"
"2018-12-21 22:21:55","mv","Street","I93 ",,,"775626.270000000000","2957748.300000000000","42.3633583091644","-71.0579883332829"
"2018-12-21 19:57:12","mv","Intersection",,"DORCHESTER AVE","W FOURTH ST","775917.060000000000","2949803.950000000000","42.3415595181132","-71.0570560132645"
